,"""address""","""bathrooms""","""country""","""distance""","""district""","""exterior""","""externalReference""","""floor""","""has360""","""has3DTour""","""hasLift""","""hasPlan""","""hasVideo""","""isParkingSpaceIncludedInPrice""","""latitude""","""longitude""","""municipality""","""neighborhood""","""newDevelopment""","""numPhotos""","""operation""","""price""","""priceByArea""","""propertyCode""","""propertyType""","""province""","""rooms""","""showAddress""","""size""","""status""","""thumbnail""","""title""","""typology""","""url""",":""address""","""newDevelopmentFinished""","""isSmokingAllowed""","""tenantGender""","""tenantNumber""","""parkingSpacePrice""","""hiddenResults""","""itemsPerPage""","""lowerRangePosition""","""numPaginations""","""paginable""","""summary""","""total""","""totalPages"""
0,,2,"""es""","""45671""",,false,"""203-5955138""",,false,false,,false,false,,40.1695989,-3.2730673,"""VillarejodeSalvanes""",,false,12,"""sale""",67283.0,434.0,"""38626728""","""chalet""","""Madrid""",3,false,155.0,"""good""","""https://img3.idealista.com/blur/WEB_LISTING/0/id.pro.es.image.master/03/00/28/570806035.jpg""","""CasaindependienteenCallebailen""","""chalet""","""https://www.idealista.com/inmueble/38626728/""","""Callebailen""",,,,,,,,,,,,,
1,"""Callelosrosales""",3,"""es""","""46436""",,false,"""203-6876767""","""bj""",false,false,,false,false,,40.2311271,-4.193987,"""Mentrida""",,false,9,"""sale""",59600.0,304.0,"""40107715""","""chalet""","""Toledo""",4,false,196.0,"""good""","""https://img3.idealista.com/blur/WEB_LISTING/0/id.pro.es.image.master/33/46/72/647676776.jpg""","""ChaletadosadoenCallelosrosales""","""chalet""","""https://www.idealista.com/inmueble/40107715/""",,,,,,,,,,,,,,
2,"""Cuestadeprim""",1,"""es""","""46362""",,false,"""203-6874807""",,false,false,,false,false,,40.2383101,-4.1976163,"""Mentrida""",,false,4,"""sale""",49300.0,432.0,"""40107545""","""chalet""","""Toledo""",1,false,114.0,"""good""","""https://img3.idealista.com/blur/WEB_LISTING/0/id.pro.es.image.master/56/b7/2d/647676050.jpg""","""ChaletadosadoenCuestadeprim""","""chalet""","""https://www.idealista.com/inmueble/40107545/""",,,,,,,,,,,,,,
3,"""Palmaces",1,"""es""","""41037""","""ElVallejo""",true,"""PLAMACESAZUQUECA""","""3""",false,false,false,false,false,,40.5689722,-3.2611597,"""AzuquecadeHenares""",,false,14,"""sale""",80000.0,964.0,"""84910102""","""flat""","""Guadalajara""",2,true,83.0,"""good""","""https://img3.idealista.com/blur/WEB_LISTING/0/id.pro.es.image.master/8f/17/9c/649662039.jpg""","""PisoenPalmaces",,"""https://www.idealista.com/inmueble/84910102/""",,,,,,,,,,,,,,
4,"""barrioProsperidad""",2,"""es""","""4193""","""Chamartin""",true,"""pros009MG""","""bj""",false,false,true,true,false,,40.4448324,-3.6702414,"""Madrid""","""Prosperidad""",false,70,"""sale""",318000.0,4240.0,"""83891968""","""flat""","""Madrid""",2,false,75.0,"""good""","""https://img3.idealista.com/blur/WEB_LISTING/0/id.pro.es.image.master/17/06/c5/735077589.jpg""","""Piso""",,"""https://www.idealista.com/inmueble/83891968/""",,,,,,,,,,,,,,
5,"""CalleDeFernandezCaro",3,"""es""","""5821""","""CiudadLineal""",false,"""CTVAF.C""",,false,false,,false,false,true,40.4461083,-3.6463386,"""Madrid""","""Concepcion""",false,24,"""sale""",1190000.0,2840.0,"""83304241""","""chalet""","""Madrid""",2,false,419.0,"""renew""","""https://img3.idealista.com/blur/WEB_LISTING/90/id.pro.es.image.master/69/c4/20/615423452.jpg""","""CasaindependienteenCalleDeFernandezCaro","""chalet""","""https://www.idealista.com/inmueble/83304241/""",,,,,,,,,,,,,,
6,"""CalleEncina",3,"""es""","""45009""",,false,"""ElPozoENCINA""",,false,false,,false,false,,40.4888245,-3.1797947,"""PozodeGuadalajara""",,false,19,"""sale""",86580.0,614.0,"""83678807""","""chalet""","""Guadalajara""",4,true,141.0,"""good""","""https://img3.idealista.com/blur/WEB_LISTING/0/id.pro.es.image.master/06/bd/a1/623547274.jpg""","""ChaletadosadoenCalleEncina","""chalet""","""https://www.idealista.com/inmueble/83678807/""",,,,,,,,,,,,,,
7,"""CalleAlondra""",1,"""es""","""4338""","""Carabanchel""",true,"""ALONDRA-MADRID""","""2""",false,false,false,true,false,,40.3891527,-3.7395427,"""Madrid""","""VistaAlegre""",false,9,"""sale""",99000.0,1394.0,"""87961220""","""flat""","""Madrid""",3,false,71.0,"""good""","""https://img3.idealista.com/blur/WEB_LISTING/0/id.pro.es.image.master/64/b5/a4/735150842.jpg""","""PisoenCalleAlondra""",,"""https://www.idealista.com/inmueble/87961220/""",,,,,,,,,,,,,,
8,"""CalleReal""",1,"""es""","""45620""",,false,"""203-6857907""","""bj""",false,false,false,true,false,,40.0235697,-3.8570254,"""Cobeja""",,false,4,"""sale""",60300.0,641.0,"""84241643""","""flat""","""Toledo""",1,false,94.0,"""good""","""https://img3.idealista.com/blur/WEB_LISTING/0/id.pro.es.image.master/f1/86/5c/647666992.jpg""","""PisoenCalleReal""",,"""https://www.idealista.com/inmueble/84241643/""",,,,,,,,,,,,,,
9,"""CalleReal""",1,"""es""","""45582""",,false,"""203-6856096""","""bj""",false,false,false,true,false,,40.0234697,-3.8550254,"""Cobeja""",,false,4,"""sale""",54100.0,644.0,"""84241548""","""flat""","""Toledo""",1,false,84.0,"""good""","""https://img3.idealista.com/blur/WEB_LISTING/0/id.pro.es.image.master/77/d9/07/647666168.jpg""","""PisoenCalleReal""",,"""https://www.idealista.com/inmueble/84241548/""",,,,,,,,,,,,,,
10,"""CalledelaUlmilla""",1,"""es""","""47462""",,false,"""203-7031392""",,false,false,false,false,false,,40.8246582,-3.5377455,"""Torrelaguna""",,false,1,"""sale""",67000.0,905.0,"""86629721""","""flat""","""Madrid""",2,false,74.0,"""good""","""https://img3.idealista.com/blur/WEB_LISTING/0/id.pro.es.image.master/96/bc/e9/698432344.jpg""","""PisoenCalledelaUlmilla""",,"""https://www.idealista.com/inmueble/86629721/""",,,,,,,,,,,,,,
11,"""CalledeSanSecundino""",1,"""es""","""4157""","""CiudadLineal""",false,"""20191114""","""3""",false,false,true,false,false,,40.4252275,-3.6554261,"""Madrid""","""Ventas""",false,35,"""sale""",176000.0,2627.0,"""87714561""","""flat""","""Madrid""",3,false,67.0,"""good""","""https://img3.idealista.com/blur/WEB_LISTING/0/id.pro.es.image.master/96/83/f7/729202848.jpg""","""PisoenCalledeSanSecundino""",,"""https://www.idealista.com/inmueble/87714561/""",,,,,,,,,,,,,,
12,"""CalleReal""",1,"""es""","""45502""",,false,"""203-6856614""","""bj""",false,false,false,false,false,,40.0246697,-3.8570254,"""Cobeja""",,false,4,"""sale""",50200.0,652.0,"""86348289""","""flat""","""Toledo""",1,false,77.0,"""good""","""https://img3.idealista.com/blur/WEB_LISTING/0/id.pro.es.image.master/1d/88/8c/690646149.jpg""","""PisoenCalleReal""",,"""https://www.idealista.com/inmueble/86348289/""",,,,,,,,,,,,,,
13,"""Calleposito""",1,"""es""","""38227""",,false,"""203-6825908""","""bj""",false,false,false,false,false,,40.1839229,-4.0350023,"""CasarrubiosdelMonte""",,false,1,"""sale""",39500.0,859.0,"""38635221""","""flat""","""Toledo""",2,false,46.0,"""good""","""https://img3.idealista.com/blur/WEB_LISTING/0/id.pro.es.image.master/4f/f6/1d/570705870.jpg""","""PisoenCalleposito""",,"""https://www.idealista.com/inmueble/38635221/""",,,,,,,,,,,,,,
14,"""CalleReal""",1,"""es""","""45598""",,false,"""203-6855501""","""bj""",false,false,false,false,false,,40.0235697,-3.8561254,"""Cobeja""",,false,3,"""sale""",49300.0,657.0,"""84241534""","""flat""","""Toledo""",1,false,75.0,"""good""","""https://img3.idealista.com/blur/WEB_LISTING/0/id.pro.es.image.master/60/e0/02/647666043.jpg""","""PisoenCalleReal""",,"""https://www.idealista.com/inmueble/84241534/""",,,,,,,,,,,,,,
15,"""CalleReal""",1,"""es""","""45485""",,false,"""203-6855224""","""bj""",false,false,false,true,false,,40.0243891,-3.8550656,"""Cobeja""",,false,4,"""sale""",49400.0,668.0,"""81946457""","""flat""","""Toledo""",1,false,74.0,"""good""","""https://img3.idealista.com/blur/WEB_LISTING/0/id.pro.es.image.master/9c/e1/44/647666028.jpg""","""PisoenCalleReal""",,"""https://www.idealista.com/inmueble/81946457/""",,,,,,,,,,,,,,
16,"""CalleReal""",1,"""es""","""45440""",,false,"""203-6856049""","""bj""",false,false,false,true,false,,40.0248697,-3.8553254,"""Cobeja""",,false,4,"""sale""",51500.0,669.0,"""84241546""","""flat""","""Toledo""",1,false,77.0,"""good""","""https://img3.idealista.com/blur/WEB_LISTING/0/id.pro.es.image.master/50/3c/54/647666160.jpg""","""PisoenCalleReal""",,"""https://www.idealista.com/inmueble/84241546/""",,,,,,,,,,,,,,
17,"""CalleReal""",1,"""es""","""45458""",,false,"""203-6855499""","""bj""",false,false,false,true,false,,40.0252697,-3.8578254,"""Cobeja""",,false,4,"""sale""",51000.0,671.0,"""84241532""","""flat""","""Toledo""",1,false,76.0,"""good""","""https://img3.idealista.com/blur/WEB_LISTING/0/id.pro.es.image.master/50/1f/11/647666035.jpg""","""PisoenCalleReal""",,"""https://www.idealista.com/inmueble/84241532/""",,,,,,,,,,,,,,
18,"""CRUZ""",2,"""es""","""157""","""Centro""",false,,"""2""",false,false,false,false,false,,40.4153501,-3.7038148,"""Madrid""","""Huertas-Cortes""",false,0,"""sale""",575000.0,3833.0,"""87353128""","""flat""","""Madrid""",5,false,150.0,"""renew""",,"""PisoenCRUZ""",,"""https://www.idealista.com/inmueble/87353128/""",,,,,,,,,,,,,,
19,"""CONIFERAS""",2,"""es""","""5706""","""Usera""",true,"""CONIFERAS-MADRID""","""3""",false,false,true,true,false,true,40.3656653,-3.6960788,"""Madrid""","""12deOctubre-Orcasur""",false,11,"""sale""",166000.0,1153.0,"""87942135""","""duplex""","""Madrid""",3,false,144.0,"""good""","""https://img3.idealista.com/blur/WEB_LISTING/0/id.pro.es.image.master/76/bb/93/734781315.jpg""","""D\u00faplexenCONIFERAS""","""flat""","""https://www.idealista.com/inmueble/87942135/""",,,,,,,,,,,,,,
20,"""CalleReal""",1,"""es""","""45584""",,false,"""203-6855195""","""bj""",false,false,false,true,false,,40.0232697,-3.8542254,"""Cobeja""",,false,4,"""sale""",50500.0,682.0,"""84241519""","""flat""","""Toledo""",1,false,74.0,"""good""","""https://img3.idealista.com/blur/WEB_LISTING/0/id.pro.es.image.master/9a/2d/95/647666004.jpg""","""PisoenCalleReal""",,"""https://www.idealista.com/inmueble/84241519/""",,,,,,,,,,,,,,
21,"""CalleelGranero""",2,"""es""","""45072""",,false,"""203-6875482""","""bj""",false,false,,false,false,,40.2553725,-4.1911179,"""Mentrida""",,false,0,"""sale""",114284.0,625.0,"""87381689""","""chalet""","""Toledo""",3,false,183.0,"""good""",,"""ChaletadosadoenCalleelGranero""","""chalet""","""https://www.idealista.com/inmueble/87381689/""",,,,,,,,,,,,,,
22,"""CalleSolanilla""",2,"""es""","""53662""",,false,"""003241""",,false,false,,false,false,,40.6201862,-4.2789326,"""SantaMariadelaAlameda""",,false,12,"""sale""",75000.0,532.0,"""82992446""","""chalet""","""Madrid""",4,false,141.0,"""good""","""https://img3.idealista.com/blur/WEB_LISTING/0/id.pro.es.image.master/ba/7e/2b/609366701.jpg""","""CasaindependienteenCalleSolanilla""","""chalet""","""https://www.idealista.com/inmueble/82992446/""",,,,,,,,,,,,,,
23,"""CalleNorte""",2,"""es""","""38586""",,false,"""203-6874918""","""1""",false,false,false,false,false,true,40.1825076,-4.0390404,"""CasarrubiosdelMonte""",,false,7,"""sale""",45100.0,739.0,"""83965148""","""flat""","""Toledo""",2,false,61.0,"""good""","""https://img3.idealista.com/blur/WEB_LISTING/0/id.pro.es.image.master/e1/05/b8/693294131.jpg""","""PisoenCalleNorte""",,"""https://www.idealista.com/inmueble/83965148/""",,,,,,,,,,,,,,
24,"""Callebarrancodevalcaliente""",1,"""es""","""38308""",,false,"""203-6880483""","""bj""",false,false,true,false,false,true,40.1875397,-4.0405945,"""CasarrubiosdelMonte""",,false,8,"""sale""",21000.0,447.0,"""40107829""","""flat""","""Toledo""",1,false,47.0,"""good""","""https://img3.idealista.com/blur/WEB_LISTING/0/id.pro.es.image.master/3e/64/9a/647678243.jpg""","""PisoenCallebarrancodevalcaliente""",,"""https://www.idealista.com/inmueble/40107829/""",,,,,,,,,,,,,,
25,"""CalleMarmol""",1,"""es""","""20027""","""Sureste""",false,"""75000030458""",,false,false,true,false,false,,40.4493564,-3.4705378,"""TorrejondeArdoz""",,false,9,"""sale""",84300.0,1258.0,"""87834525""","""flat""","""Madrid""",3,false,67.0,,"""https://img3.idealista.com/blur/WEB_LISTING/0/id.pro.es.image.master/4d/dd/0c/732060595.jpg""","""PisoenCalleMarmol""",,"""https://www.idealista.com/inmueble/87834525/""",,,,,,,,,,,,,,
26,"""MARMOL",1,"""es""","""20255""","""Sureste""",true,"""marmol","""2""",false,false,true,false,false,,40.4500669,-3.4679613,"""TorrejondeArdoz""",,false,15,"""sale""",84300.0,1204.0,"""86556813""","""flat""","""Madrid""",3,true,70.0,"""renew""","""https://img3.idealista.com/blur/WEB_LISTING/0/id.pro.es.image.master/0f/b4/aa/696655589.jpg""","""PisoenMARMOL",,"""https://www.idealista.com/inmueble/86556813/""",,,,,,,,,,,,,,
27,"""LasVentasdeRetamosa""",3,"""es""","""45299""",,false,"""105111""",,false,false,,true,false,true,40.1525151,-4.1098147,"""LasVentasdeRetamosa""",,false,65,"""sale""",116900.0,506.0,"""83406746""","""chalet""","""Toledo""",4,false,231.0,"""good""","""https://img3.idealista.com/blur/WEB_LISTING/0/id.pro.es.image.master/e8/f5/48/617393199.jpg""","""Chaletadosado""","""chalet""","""https://www.idealista.com/inmueble/83406746/""",,,,,,,,,,,,,,
28,"""FedericoGarciaLorca",3,"""es""","""48790""",,false,"""AREFUFEDERICOGARCIALORCA10""",,false,false,,false,false,,40.5723871,-3.1637624,"""Chiloeches""",,false,15,"""sale""",94000.0,862.0,"""87081473""","""chalet""","""Guadalajara""",3,true,109.0,"""renew""","""https://img3.idealista.com/blur/WEB_LISTING/0/id.pro.es.image.master/20/92/d3/710805235.jpg""","""ChaletadosadoenFedericoGarciaLorca","""chalet""","""https://www.idealista.com/inmueble/87081473/""",,,,,,,,,,,,,,
29,"""RupertoChapi",3,"""es""","""45977""",,false,"""CARAQUIZRUPERTOCHAPI6""",,false,false,,false,false,true,40.7905734,-3.4705812,"""Uceda""",,false,25,"""sale""",102900.0,539.0,"""87956994""","""chalet""","""Guadalajara""",4,true,191.0,"""good""","""https://img3.idealista.com/blur/WEB_LISTING/0/id.pro.es.image.master/d2/11/be/735062076.jpg""","""ChaletpareadoenRupertoChapi","""chalet""","""https://www.idealista.com/inmueble/87956994/""",,,,,,,,,,,,,,
30,"""CalleCiudadReals/n""",1,"""es""","""45917""",,false,"""5945802""","""bj""",false,false,,false,false,true,40.2401214,-4.1929407,"""Mentrida""",,false,11,"""sale""",63319.0,422.0,"""87848659""","""chalet""","""Toledo""",3,true,150.0,,"""https://img3.idealista.com/blur/WEB_LISTING/0/id.pro.es.image.master/63/e1/68/732397264.jpg""","""ChaletadosadoenCalleCiudadReals/n""","""chalet""","""https://www.idealista.com/inmueble/87848659/""",,,,,,,,,,,,,,
31,"""ReginaAlvarez""",5,"""es""","""6426""","""Moncloa""",false,"""C07MAD""",,false,false,,false,false,true,40.4724474,-3.7232917,"""Madrid""","""Valdezarza""",false,36,"""sale""",980000.0,1633.0,"""82296010""","""chalet""","""Madrid""",5,false,600.0,"""good""","""https://img3.idealista.com/blur/WEB_LISTING/0/id.pro.es.image.master/e1/4a/45/595221968.jpg""","""CasaindependienteenReginaAlvarez""","""chalet""","""https://www.idealista.com/inmueble/82296010/""",,,,,,,,,,,,,,
32,"""CalledelOlmo",2,"""es""","""51736""",,true,,"""bj""",false,false,false,false,false,,40.5335723,-3.1111745,"""Yebes""",,false,13,"""sale""",57820.0,572.0,"""84909986""","""duplex""","""Guadalajara""",2,true,101.0,"""good""","""https://img3.idealista.com/blur/WEB_LISTING/0/id.pro.es.image.master/44/b8/8f/649660504.jpg""","""D\u00faplexenCalledelOlmo","""flat""","""https://www.idealista.com/inmueble/84909986/""",,,,,,,,,,,,,,
33,"""CaminoValdehigueras""",1,"""es""","""59888""",,false,"""203-6875924""","""1""",false,false,false,false,false,,39.9370759,-4.0240276,"""Bargas""",,false,6,"""sale""",62500.0,856.0,"""84716317""","""flat""","""Toledo""",2,false,73.0,"""good""","""https://img3.idealista.com/blur/WEB_LISTING/0/id.pro.es.image.master/a9/a0/f5/719807342.jpg""","""PisoenCaminoValdehigueras""",,"""https://www.idealista.com/inmueble/84716317/""",,,,,,,,,,,,,,
34,"""Calleciudadreal""",1,"""es""","""45726""",,false,"""203-5945802""","""bj""",false,false,,false,false,true,40.2417883,-4.1914854,"""Mentrida""",,false,8,"""sale""",63320.0,419.0,"""36615622""","""chalet""","""Toledo""",3,false,151.0,"""good""","""https://img3.idealista.com/blur/WEB_LISTING/0/id.pro.es.image.master/fa/2c/67/267189870.jpg""","""ChaletadosadoenCalleciudadreal""","""chalet""","""https://www.idealista.com/inmueble/36615622/""",,,,,,,,,,,,,,
35,"""CalleZarza""",1,"""es""","""38199""",,false,"""203-6885041""","""bj""",false,false,false,false,false,true,40.1856208,-4.0365892,"""CasarrubiosdelMonte""",,false,0,"""sale""",52800.0,788.0,"""86315047""","""flat""","""Toledo""",2,false,67.0,"""good""",,"""PisoenCalleZarza""",,"""https://www.idealista.com/inmueble/86315047/""",,,,,,,,,,,,,,
36,"""CalledeSeveroOchoa""",1,"""es""","""20018""",,true,"""3247PV-CM""","""5""",true,false,,true,false,,40.2610138,-3.8218844,"""HumanesdeMadrid""",,false,31,"""sale""",132500.0,1656.0,"""85883461""","""flat""","""Madrid""",3,false,80.0,"""good""","""https://img3.idealista.com/blur/WEB_LISTING/0/id.pro.es.image.master/96/ba/b3/730986059.jpg""","""PisoenCalledeSeveroOchoa""",,"""https://www.idealista.com/inmueble/85883461/""",,,,,,,,,,,,,,
37,"""CalleLavanda""",2,"""es""","""54014""",,false,"""2364""",,false,false,false,false,false,,40.5928787,-3.1078499,"""Yebes""",,false,11,"""sale""",87900.0,862.0,"""82632627""","""flat""","""Guadalajara""",2,false,102.0,,"""https://img3.idealista.com/blur/WEB_LISTING/0/id.pro.es.image.master/48/77/6f/601642330.jpg""","""PisoenCalleLavanda""",,"""https://www.idealista.com/inmueble/82632627/""",,,,,,,,,,,,,,
38,"""CalleCordoba""",1,"""es""","""19013""","""Noroeste""",false,"""75000030460""",,false,false,false,false,false,,40.4552429,-3.4843663,"""TorrejondeArdoz""",,false,4,"""sale""",56200.0,892.0,"""87834534""","""flat""","""Madrid""",3,false,63.0,,"""https://img3.idealista.com/blur/WEB_LISTING/0/id.pro.es.image.master/49/2b/3f/732060698.jpg""","""PisoenCalleCordoba""",,"""https://www.idealista.com/inmueble/87834534/""",,,,,,,,,,,,,,
39,"""Carranque""",1,"""es""","""33936""",,false,"""c-4443""",,false,false,,false,false,,40.1553893,-3.9099889,"""Carranque""",,false,8,"""sale""",49500.0,3.0,"""87164784""","""chalet""","""Toledo""",1,false,18000.0,"""good""","""https://img3.idealista.com/blur/WEB_LISTING/0/id.pro.es.image.master/d7/49/6a/713374109.jpg""","""Casaindependiente""","""chalet""","""https://www.idealista.com/inmueble/87164784/""",,,,,,,,,,,,,,
40,"""Camarena""",1,"""es""","""50175""",,false,,"""1""",false,false,true,false,false,,40.0966816,-4.1201418,"""Camarena""",,false,43,"""sale""",62178.0,888.0,"""86815754""","""flat""","""Toledo""",2,false,70.0,"""good""","""https://img3.idealista.com/blur/WEB_LISTING/0/id.pro.es.image.master/0a/14/71/703658971.jpg""","""Piso""",,"""https://www.idealista.com/inmueble/86815754/""",,,,,,,,,,,,,,
41,"""CalledePastoraImperio""",2,"""es""","""7677""","""Chamartin""",true,"""PASTORAIMPERIO-MADRID""","""13""",false,false,true,true,false,,40.4824247,-3.675431,"""Madrid""","""Castilla""",false,9,"""sale""",388000.0,3767.0,"""87879098""","""flat""","""Madrid""",3,false,103.0,"""good""","""https://img3.idealista.com/blur/WEB_LISTING/0/id.pro.es.image.master/1b/6c/b0/733102303.jpg""","""PisoenCalledePastoraImperio""",,"""https://www.idealista.com/inmueble/87879098/""",,,,,,,,,,,,,,
42,"""ChozasdeCanales""",1,"""es""","""45652""",,false,"""Sandra""",,false,false,,false,false,,40.0991313,-4.0442772,"""ChozasdeCanales""",,false,10,"""sale""",46500.0,310.0,"""30587041""","""chalet""","""Toledo""",3,false,150.0,"""good""","""https://img3.idealista.com/blur/WEB_LISTING/0/id.pro.es.image.master/20/75/39/39694031.jpg""","""Casaindependiente""","""chalet""","""https://www.idealista.com/inmueble/30587041/""",,,,,,,,,,,,,,
43,"""CalleBarrancodeValcaliente""",1,"""es""","""38169""",,false,"""203-6880203""","""2""",false,false,true,false,false,true,40.1864397,-4.0370945,"""CasarrubiosdelMonte""",,false,0,"""sale""",42000.0,442.0,"""83206088""","""duplex""","""Toledo""",2,false,95.0,"""good""",,"""D\u00faplexenCalleBarrancodeValcaliente""","""flat""","""https://www.idealista.com/inmueble/83206088/""",,,,,,,,,,,,,,
44,"""CalleBarrancodeValcaliente""",1,"""es""","""38365""",,false,"""203-6880202""","""1""",false,false,true,false,false,true,40.1853397,-4.0388945,"""CasarrubiosdelMonte""",,false,0,"""sale""",32700.0,448.0,"""81693535""","""flat""","""Toledo""",2,false,73.0,"""good""",,"""PisoenCalleBarrancodeValcaliente""",,"""https://www.idealista.com/inmueble/81693535/""",,,,,,,,,,,,,,
45,"""CalleBarrancodeValcaliente""",1,"""es""","""38055""",,false,"""203-6880204""","""2""",false,false,true,false,false,true,40.1881397,-4.0372945,"""CasarrubiosdelMonte""",,false,0,"""sale""",38500.0,448.0,"""83025643""","""duplex""","""Toledo""",2,false,86.0,"""good""",,"""D\u00faplexenCalleBarrancodeValcaliente""","""flat""","""https://www.idealista.com/inmueble/83025643/""",,,,,,,,,,,,,,
47,"""CalledelDoctorSanchez""",1,"""es""","""4883""","""PuentedeVallecas""",true,"""3343PV-DS""","""1""",false,false,,true,false,,40.381962,-3.6679589,"""Madrid""","""SanDiego""",false,26,"""sale""",96500.0,1206.0,"""87808789""","""flat""","""Madrid""",3,false,80.0,"""good""","""https://img3.idealista.com/blur/WEB_LISTING/0/id.pro.es.image.master/51/50/82/731383815.jpg""","""PisoenCalledelDoctorSanchez""",,"""https://www.idealista.com/inmueble/87808789/""",,,,,,,,,,,,,,
48,"""Arcicollar""",1,"""es""","""54670""",,false,"""105005""",,false,false,,true,false,,40.0457344,-4.1259492,"""Arcicollar""",,false,31,"""sale""",52000.0,675.0,"""86395630""","""chalet""","""Toledo""",2,false,77.0,"""good""","""https://img3.idealista.com/blur/WEB_LISTING/0/id.pro.es.image.master/25/42/42/692116779.jpg""","""Casaindependiente""","""chalet""","""https://www.idealista.com/inmueble/86395630/""",,,,,,,,,,,,,,
49,,3,"""es""","""8091""","""Villaverde""",true,"""9206PV-RSC""","""7""",false,false,true,true,false,true,40.3469728,-3.6759211,"""Madrid""","""Butarque""",false,41,"""sale""",320000.0,2667.0,"""87412107""","""duplex""","""Madrid""",3,false,120.0,"""good""","""https://img3.idealista.com/blur/WEB_LISTING/0/id.pro.es.image.master/e6/89/6c/720306138.jpg""","""D\u00faplexenCalledeBerrocal""","""flat""","""https://www.idealista.com/inmueble/87412107/""","""CalledeBerrocal""",,,,,,,,,,,,,
50,"""CalleAzucenas",2,"""es""","""348437""","""Norte""",true,"""11248PE""","""3""",false,false,true,true,false,true,38.001661,-1.1253522,"""Murcia""","""ZonaJuandeBorbon""",false,29,"""sale""",310000.0,2138.0,"""86958489""","""duplex""","""Murcia""",4,true,145.0,"""good""","""https://img3.idealista.com/blur/WEB_LISTING/0/id.pro.es.image.master/89/d0/a0/707698255.jpg""","""D\u00faplexenCalleAzucenas","""flat""","""https://www.idealista.com/inmueble/86958489/""",,,,,,,,,,,,,,
51,"""AvenidaPONENT""",1,"""es""","""500092""","""LaFlorida-LesPlanes""",true,"""REF.838""","""3""",false,false,true,false,true,,41.3696407,2.1127809,"""HospitaletdeLlobregat""","""LesPlanes""",false,23,"""sale""",175000.0,2188.0,"""87951097""","""flat""","""Barcelona""",4,false,80.0,"""good""","""https://img3.idealista.com/blur/WEB_LISTING/0/id.pro.es.image.master/09/e7/2b/734932003.jpg""","""PisoenAvenidaPONENT""",,"""https://www.idealista.com/inmueble/87951097/""",,,,,,,,,,,,,,
52,"""AvenidadeJuanAntonioSamaranch",2,"""es""","""11493""","""Hortaleza""",false,"""VI-99950-p2-pl2-h3-ptaA-T7""","""2""",false,false,true,true,false,true,40.4936174,-3.6124908,"""Madrid""","""Valdebebas-Valdefuentes""",true,17,"""sale""",516000.0,3739.0,"""86116047""","""flat""","""Madrid""",3,true,138.0,"""newdevelopment""","""https://img3.idealista.com/blur/WEB_LISTING/0/id.pro.es.image.master/31/b7/54/729007197.jpg""","""PisoenAvenidadeJuanAntonioSamaranch",,"""https://www.idealista.com/obra-nueva/86116047/""",,false,,,,,,,,,,,,
53,"""CalleAiguablava""",3,"""es""","""566215""","""Urbanitzacions""",false,"""FLOPI""",,false,false,,false,true,true,41.734561,2.8237943,"""LloretdeMar""",,false,48,"""sale""",450000.0,1607.0,"""87189133""","""chalet""","""Girona""",5,false,280.0,"""good""","""https://img3.idealista.com/blur/WEB_LISTING/0/id.pro.es.image.master/16/dd/30/714081555.jpg""","""CasaindependienteenCalleAiguablava""","""chalet""","""https://www.idealista.com/inmueble/87189133/""",,,,,,,,,,,,,,
54,"""Torre-Pacheco""",2,"""es""","""379716""","""Torre-Pacheco""",false,,,false,false,,false,false,true,37.7467048,-0.959426,"""Torre-Pacheco""",,false,34,"""sale""",149900.0,1056.0,"""87712952""","""chalet""","""Murcia""",4,false,142.0,"""good""","""https://img3.idealista.com/blur/WEB_LISTING/0/id.pro.es.image.master/de/0e/31/729162924.jpg""","""Chaletadosado""","""chalet""","""https://www.idealista.com/inmueble/87712952/""",,,,,,,,,,,,,,
55,"""PaseodelGeneralMartinezCampos""",4,"""es""","""2265""","""Chamberi""",true,"""5335""","""4""",false,true,true,true,true,,40.435988,-3.6946342,"""Madrid""","""Almagro""",false,38,"""sale""",3800000.0,5390.0,"""85391728""","""flat""","""Madrid""",5,false,705.0,"""renew""","""https://img3.idealista.com/blur/WEB_LISTING/0/id.pro.es.image.master/d7/30/c7/661263388.jpg""","""PisoenPaseodelGeneralMartinezCampos""",,"""https://www.idealista.com/inmueble/85391728/""",,,,,,,,,,,,,,
56,"""pradodelrey""",8,"""es""","""8143""","""ZonaPradodeSomosaguas-LaFinca""",false,"""5513""",,false,true,,true,true,true,40.413707,-3.7993611,"""PozuelodeAlarcon""","""LaFinca""",false,55,"""sale""",2800000.0,3500.0,"""87147632""","""chalet""","""Madrid""",6,false,800.0,"""good""","""https://img3.idealista.com/blur/WEB_LISTING/0/id.pro.es.image.master/36/bc/a2/712870856.jpg""","""Casaindependienteenpradodelrey""","""chalet""","""https://www.idealista.com/inmueble/87147632/""",,,,,,,,,,,,,,
57,"""Paseodelhontanar""",8,"""es""","""8634""","""ZonaPradodeSomosaguas-LaFinca""",false,"""5511""",,false,true,,true,true,true,40.4113461,-3.8050016,"""PozuelodeAlarcon""","""LaFinca""",false,48,"""sale""",1795000.0,2393.0,"""87092863""","""chalet""","""Madrid""",6,false,750.0,"""good""","""https://img3.idealista.com/blur/WEB_LISTING/0/id.pro.es.image.master/f5/88/c1/711185727.jpg""","""ChaletadosadoenPaseodelhontanar""","""chalet""","""https://www.idealista.com/inmueble/87092863/""",,,,,,,,,,,,,,
58,"""CalledelNaranjodeBulnes""",5,"""es""","""25473""",,false,"""XV7905""",,false,true,,true,true,true,40.6294069,-3.5912791,"""Ciudalcampo""",,false,45,"""sale""",1050000.0,1780.0,"""85091581""","""chalet""","""Madrid""",5,false,590.0,"""good""","""https://img3.idealista.com/blur/WEB_LISTING/0/id.pro.es.image.master/90/5f/d4/730845801.jpg""","""CasaindependienteenCalledelNaranjodeBulnes""","""chalet""","""https://www.idealista.com/inmueble/85091581/""",,,,,,,,,,,,,,
59,"""barrioElViso""",3,"""es""","""3261""","""Chamartin""",true,"""VP21108""","""4""",false,true,true,true,true,true,40.4408329,-3.6813401,"""Madrid""","""ElViso""",false,33,"""sale""",1550000.0,7045.0,"""86542842""","""flat""","""Madrid""",4,false,220.0,"""good""","""https://img3.idealista.com/blur/WEB_LISTING/0/id.pro.es.image.master/91/4c/7d/696920852.jpg""","""Piso""",,"""https://www.idealista.com/inmueble/86542842/""",,,,,,,,,,,,,,
60,"""barrioValdemarin""",3,"""es""","""7789""","""Moncloa""",true,"""PV5017I""","""1""",false,true,true,true,true,true,40.4677006,-3.7663498,"""Madrid""","""Valdemarin""",false,53,"""sale""",890000.0,4564.0,"""86083869""","""flat""","""Madrid""",4,false,195.0,"""good""","""https://img3.idealista.com/blur/WEB_LISTING/0/id.pro.es.image.master/bb/77/7d/735054350.jpg""","""Piso""",,"""https://www.idealista.com/inmueble/86083869/""",,,,,,,,,,,,,,
61,"""CuestadelaSierra",6,"""es""","""12196""","""LaMoraleja""",false,"""VC19982""",,true,true,,true,true,true,40.5164956,-3.6433973,"""LaMoraleja""",,false,75,"""sale""",4250000.0,4250.0,"""83814030""","""chalet""","""Madrid""",6,false,1000.0,"""good""","""https://img3.idealista.com/blur/WEB_LISTING/0/id.pro.es.image.master/fb/60/f3/626287393.jpg""","""CasaindependienteenCuestadelaSierra","""chalet""","""https://www.idealista.com/inmueble/83814030/""",,,,,,,,,,,,,,
62,"""fuencarral",4,"""es""","""625""","""Centro""",true,"""5306""","""1""",true,true,true,true,true,,40.4219973,-3.7007695,"""Madrid""","""Chueca-Justicia""",false,32,"""sale""",1750000.0,4419.0,"""38987694""","""flat""","""Madrid""",3,true,396.0,"""good""","""https://img3.idealista.com/blur/WEB_LISTING/0/id.pro.es.image.master/c1/9b/55/251630708.jpg""","""Pisoenfuencarral",,"""https://www.idealista.com/inmueble/38987694/""",,,,,,,,,,,,,,
63,"""PaseodeEduardoDato""",6,"""es""","""2074""","""Chamberi""",true,"""5348""","""1""",false,true,true,true,true,true,40.4340845,-3.6943509,"""Madrid""","""Almagro""",false,46,"""sale""",3200000.0,6598.0,"""87424937""","""flat""","""Madrid""",6,false,485.0,"""renew""","""https://img3.idealista.com/blur/WEB_LISTING/0/id.pro.es.image.master/a0/a3/1a/720692711.jpg""","""PisoenPaseodeEduardoDato""",,"""https://www.idealista.com/inmueble/87424937/""",,,,,,,,,,,,,,
64,"""Paseodeloslagos""",9,"""es""","""9091""","""ZonaPradodeSomosaguas-LaFinca""",false,"""5512""",,false,true,,true,true,,40.4182353,-3.8106237,"""PozuelodeAlarcon""","""LaFinca""",false,84,"""sale""",6300000.0,7875.0,"""87090184""","""chalet""","""Madrid""",7,false,800.0,"""good""","""https://img3.idealista.com/blur/WEB_LISTING/0/id.pro.es.image.master/8c/bf/98/711104097.jpg""","""CasaindependienteenPaseodeloslagos""","""chalet""","""https://www.idealista.com/inmueble/87090184/""",,,,,,,,,,,,,,
65,"""Paseohontanar""",8,"""es""","""8515""","""ZonaPradodeSomosaguas-LaFinca""",false,"""5507""",,false,true,,true,true,true,40.4104461,-3.8035016,"""PozuelodeAlarcon""","""LaFinca""",false,47,"""sale""",1675000.0,2094.0,"""86984469""","""chalet""","""Madrid""",5,false,800.0,"""good""","""https://img3.idealista.com/blur/WEB_LISTING/0/id.pro.es.image.master/65/d8/e2/707896966.jpg""","""ChaletadosadoenPaseohontanar""","""chalet""","""https://www.idealista.com/inmueble/86984469/""",,,,,,,,,,,,,,
66,"""CalleCambrils""",4,"""es""","""7825""","""Fuencarral""",false,"""1529""",,true,true,,true,true,true,40.4869393,-3.7091231,"""Madrid""","""Mirasierra""",false,58,"""sale""",1395000.0,2987.0,"""86059563""","""chalet""","""Madrid""",5,false,467.0,"""good""","""https://img3.idealista.com/blur/WEB_LISTING/0/id.pro.es.image.master/c8/77/45/682482149.jpg""","""CasaindependienteenCalleCambrils""","""chalet""","""https://www.idealista.com/inmueble/86059563/""",,,,,,,,,,,,,,
67,"""CalledelMonteEsquinza""",6,"""es""","""1552""","""Chamberi""",true,"""5337""","""4""",true,true,true,true,true,,40.4287538,-3.6939984,"""Madrid""","""Almagro""",false,48,"""sale""",3950000.0,6077.0,"""85457865""","""penthouse""","""Madrid""",6,false,650.0,"""good""","""https://img3.idealista.com/blur/WEB_LISTING/0/id.pro.es.image.master/e1/e6/d5/662982473.jpg""","""AticoenCalledelMonteEsquinza""","""flat""","""https://www.idealista.com/inmueble/85457865/""",,,,,,,,,,,,,,
68,,1,"""es""","""744""","""Centro""",true,,"""3""",false,false,true,false,false,,40.4131131,-3.6958228,"""Madrid""","""Huertas-Cortes""",false,12,"""rent""",1345.0,23.0,"""88017302""","""duplex""","""Madrid""",2,false,58.0,"""good""","""https://img3.idealista.com/blur/WEB_LISTING/0/id.pro.es.image.master/e0/ec/13/736537716.jpg""","""D\u00faplexenCalledelaAlameda""","""flat""","""https://www.idealista.com/inmueble/88017302/""","""CalledelaAlameda""",,,,,,,,,,,,,
69,"""CalledelaPrincesa""",2,"""es""","""2248""","""Moncloa""",true,,"""5""",false,false,true,false,false,,40.4343542,-3.7162088,"""Madrid""","""Arg\u00fcelles""",false,15,"""rent""",2100.0,19.0,"""88017182""","""flat""","""Madrid""",3,false,110.0,"""good""","""https://img3.idealista.com/blur/WEB_LISTING/0/id.pro.es.image.master/90/29/33/736534422.jpg""","""PisoenCalledelaPrincesa""",,"""https://www.idealista.com/inmueble/88017182/""",,,,,,,,,,,,,,
70,"""CalledelosVoluntariosCatalanes""",1,"""es""","""5367""","""Tetuan""",true,"""Fernan""","""2""",false,false,false,false,false,,40.4648505,-3.6987308,"""Madrid""","""Valdeacederas""",false,13,"""rent""",1200.0,15.0,"""88017190""","""flat""","""Madrid""",3,false,80.0,"""good""","""https://img3.idealista.com/blur/WEB_LISTING/0/id.pro.es.image.master/58/c0/1a/736534129.jpg""","""PisoenCalledelosVoluntariosCatalanes""",,"""https://www.idealista.com/inmueble/88017190/""",,,,,,,,,,,,,,
71,"""CallePenalaradeAravaca",1,"""es""","""9579""","""Moncloa""",true,"""BAJO1H""","""bj""",false,false,true,true,true,,40.46111,-3.80025,"""Madrid""","""Aravaca""",true,23,"""rent""",1400.0,20.0,"""88017187""","""flat""","""Madrid""",1,true,70.0,"""newdevelopment""","""https://img3.idealista.com/blur/WEB_LISTING/0/id.pro.es.image.master/0c/1b/c2/238354806.jpg""","""PisoenCallePenalaradeAravaca",,"""https://www.idealista.com/obra-nueva/88017187/""",,false,,,,,,,,,,,,
72,"""CallePenalaradeAravaca",2,"""es""","""9579""","""Moncloa""",true,"""ATICO2H""",,false,false,true,true,true,,40.46111,-3.80025,"""Madrid""","""Aravaca""",true,23,"""rent""",1900.0,20.0,"""88017143""","""penthouse""","""Madrid""",2,true,97.0,"""newdevelopment""","""https://img3.idealista.com/blur/WEB_LISTING/0/id.pro.es.image.master/0c/1b/c2/238354806.jpg""","""AticoenCallePenalaradeAravaca","""flat""","""https://www.idealista.com/obra-nueva/88017143/""",,false,,,,,,,,,,,,
73,"""CallePenalaradeAravaca",2,"""es""","""9579""","""Moncloa""",true,"""PRIMERO3H""","""1""",false,false,true,true,true,,40.46111,-3.80025,"""Madrid""","""Aravaca""",true,23,"""rent""",2200.0,16.0,"""88017140""","""flat""","""Madrid""",3,true,140.0,"""newdevelopment""","""https://img3.idealista.com/blur/WEB_LISTING/0/id.pro.es.image.master/0c/1b/c2/238354806.jpg""","""PisoenCallePenalaradeAravaca",,"""https://www.idealista.com/obra-nueva/88017140/""",,false,,,,,,,,,,,,
74,"""CallePuertoAlto",1,"""es""","""3957""","""PuentedeVallecas""",true,"""2809-017338-01""","""1""",false,false,false,false,false,,40.3932143,-3.668127,"""Madrid""","""SanDiego""",false,19,"""rent""",650.0,13.0,"""88017162""","""flat""","""Madrid""",2,true,50.0,"""good""","""https://img3.idealista.com/blur/WEB_LISTING/0/id.pro.es.image.master/cb/03/92/736533124.jpg""","""PisoenCallePuertoAlto",,"""https://www.idealista.com/inmueble/88017162/""",,,,,,,,,,,,,,
75,"""CallePedroJimenez",1,"""es""","""8121""","""Villaverde""",true,,"""2""",false,false,true,false,false,,40.3437548,-3.7082874,"""Madrid""","""SanAndres""",false,30,"""rent""",650.0,9.0,"""88017159""","""flat""","""Madrid""",2,true,70.0,"""good""","""https://img3.idealista.com/blur/WEB_LISTING/0/id.pro.es.image.master/39/72/95/736533048.jpg""","""PisoenCallePedroJimenez",,"""https://www.idealista.com/inmueble/88017159/""",,,,,,,,,,,,,,
76,"""CalleTomasaRuiz",1,"""es""","""2395""","""Carabanchel""",true,"""2801-017336-01""","""8""",false,false,true,false,false,,40.3959266,-3.7107729,"""Madrid""","""Comillas""",false,22,"""rent""",850.0,11.0,"""88017146""","""flat""","""Madrid""",2,true,80.0,"""good""","""https://img3.idealista.com/blur/WEB_LISTING/0/id.pro.es.image.master/74/a8/55/736533004.jpg""","""PisoenCalleTomasaRuiz",,"""https://www.idealista.com/inmueble/88017146/""",,,,,,,,,,,,,,
77,"""CalledeIlustracion",1,"""es""","""1269""","""Moncloa""",false,,"""2""",false,false,true,false,false,,40.4212747,-3.7169906,"""Madrid""","""Arg\u00fcelles""",false,26,"""rent""",730.0,18.0,"""88017158""","""flat""","""Madrid""",2,true,40.0,"""good""","""https://img3.idealista.com/blur/WEB_LISTING/0/id.pro.es.image.master/e4/f0/e3/736532990.jpg""","""PisoenCalledeIlustracion",,"""https://www.idealista.com/inmueble/88017158/""",,,,,,,,,,,,,,
78,"""CalleSanRobustiano",2,"""es""","""4263""","""Latina""",true,"""2808-017335-01""","""1""",false,false,false,false,false,,40.39311,-3.74295,"""Madrid""","""Aluche""",false,29,"""rent""",895.0,11.0,"""88017157""","""flat""","""Madrid""",4,true,80.0,"""good""","""https://img3.idealista.com/blur/WEB_LISTING/0/id.pro.es.image.master/cf/da/42/736532957.jpg""","""PisoenCalleSanRobustiano",,"""https://www.idealista.com/inmueble/88017157/""",,,,,,,,,,,,,,
79,"""CalleJuandeVera",1,"""es""","""2444""","""Arganzuela""",true,"""2809-017337-01""","""6""",false,false,true,false,false,,40.3959632,-3.6936646,"""Madrid""","""Delicias""",false,21,"""rent""",950.0,16.0,"""88017156""","""penthouse""","""Madrid""",1,true,60.0,"""good""","""https://img3.idealista.com/blur/WEB_LISTING/0/id.pro.es.image.master/bd/85/1a/736532926.jpg""","""AticoenCalleJuandeVera","""flat""","""https://www.idealista.com/inmueble/88017156/""",,,,,,,,,,,,,,
80,"""barrioCascoHistoricodeBarajas""",1,"""es""","""11997""","""Barajas""",true,"""668-PisoBarajas""","""bj""",false,false,true,false,false,,40.471596,-3.5811896,"""Madrid""","""CascoHistoricodeBarajas""",false,12,"""rent""",700.0,12.0,"""88017137""","""flat""","""Madrid""",1,false,60.0,"""good""","""https://img3.idealista.com/blur/WEB_LISTING/0/id.pro.es.image.master/c7/67/77/736532803.jpg""","""Piso""",,"""https://www.idealista.com/inmueble/88017137/""",,,,,,,,,,,,,,
81,"""CalleManueldeFallas/n""",2,"""es""","""10310""","""Zonanorte""",true,,"""2""",false,false,true,false,false,true,40.4551982,-3.8140886,"""PozuelodeAlarcon""","""Zonanorte""",false,9,"""rent""",1350.0,12.0,"""88017119""","""flat""","""Madrid""",2,true,110.0,"""good""","""https://img3.idealista.com/blur/WEB_LISTING/0/id.pro.es.image.master/5b/0e/44/736532636.jpg""","""PisoenCalleManueldeFallas/n""",,"""https://www.idealista.com/inmueble/88017119/""",,,,,,,,,,,,,,
82,"""CallePenalaradeAravaca",2,"""es""","""9579""","""Moncloa""",true,"""2\u00bay3\u00baCONBALCONADA3H""","""2""",false,false,true,true,true,,40.46111,-3.80025,"""Madrid""","""Aravaca""",true,23,"""rent""",2000.0,14.0,"""88017111""","""flat""","""Madrid""",3,true,138.0,"""newdevelopment""","""https://img3.idealista.com/blur/WEB_LISTING/0/id.pro.es.image.master/0c/1b/c2/238354806.jpg""","""PisoenCallePenalaradeAravaca",,"""https://www.idealista.com/obra-nueva/88017111/""",,false,,,,,,,,,,,,
83,"""barrioLaCabana""",4,"""es""","""11688""","""Urbanizaciones""",false,"""ALPOZ002""",,false,false,,false,false,,40.4180353,-3.8413158,"""PozuelodeAlarcon""","""LaCabana""",false,45,"""rent""",3300.0,8.0,"""88016953""","""chalet""","""Madrid""",6,false,400.0,,"""https://img3.idealista.com/blur/WEB_LISTING/0/id.pro.es.image.master/08/f2/eb/736528596.jpg""","""Casaindependiente""","""chalet""","""https://www.idealista.com/inmueble/88016953/""",,,,,,,,,,,,,,
84,"""CascoAntiguo""",1,"""es""","""31263""","""CascoAntiguo""",true,,"""1""",false,false,true,false,false,,40.5783377,-4.0058027,"""Galapagar""",,false,13,"""rent""",670.0,9.0,"""88016896""","""flat""","""Madrid""",1,false,75.0,"""good""","""https://img3.idealista.com/blur/WEB_LISTING/0/id.pro.es.image.master/a2/bf/6f/736526141.jpg""","""Piso""",,"""https://www.idealista.com/inmueble/88016896/""",,,,,,,,,,,,,,
85,"""CalleCalledeMariadelasMercedesdeBorbon""",2,"""es""","""11013""","""Hortaleza""",true,"""VALDEBEBAS4D""","""8""",false,false,true,true,false,true,40.4882513,-3.613241,"""Madrid""","""Valdebebas-Valdefuentes""",false,17,"""rent""",2000.0,14.0,"""39157151""","""flat""","""Madrid""",4,false,142.0,"""good""","""https://img3.idealista.com/blur/WEB_LISTING/0/id.pro.es.image.master/dd/21/b6/254928860.jpg""","""PisoenCalleCalledeMariadelasMercedesdeBorbon""",,"""https://www.idealista.com/inmueble/39157151/""",,,,,,,,,,,,,,
86,"""Lagasca""",3,"""es""","""2305""","""Salamanca""",true,"""W-02HPRF""","""4""",false,false,true,true,true,true,40.4331927,-3.6867489,"""Madrid""","""Castellana""",false,29,"""rent""",3400.0,17.0,"""88016754""","""flat""","""Madrid""",3,false,195.0,"""good""","""https://img3.idealista.com/blur/WEB_LISTING/0/id.pro.es.image.master/8b/7e/32/736519774.jpg""","""PisoenLagasca""",,"""https://www.idealista.com/inmueble/88016754/""",,,,,,,,,,,,,,
106,,3,"""es""","""25919""",,false,"""BED-1418""",,false,false,,false,false,,40.2116059,-3.8485694,"""Grinon""",,false,37,"""rent""",1100.0,4.0,"""88027236""","""chalet""","""Madrid""",4,false,250.0,,"""https://img3.idealista.com/blur/WEB_LISTING/0/id.pro.es.image.master/c8/73/0c/736796503.jpg""","""Chaletadosado""","""chalet""","""https://www.idealista.com/inmueble/88027236/""","""Grinon""",,,,,,,,,,,,,
107,"""CalledeLaBaneza""",1,"""es""","""6766""","""Fuencarral""",false,"""Alquiler_6""","""1""",false,false,true,false,false,,40.4769451,-3.7145581,"""Madrid""","""Pilar""",false,28,"""rent""",800.0,20.0,"""88027229""","""flat""","""Madrid""",1,false,40.0,,"""https://img3.idealista.com/blur/WEB_LISTING/0/id.pro.es.image.master/5f/f0/d7/736789775.jpg""","""PisoenCalledeLaBaneza""",,"""https://www.idealista.com/inmueble/88027229/""",,,,,,,,,,,,,,
108,"""Avenidadevalladolid""",1,"""es""","""2689""","""Moncloa""",true,"""Avda.Valladolid""","""3""",false,false,true,false,false,,40.4298458,-3.7299258,"""Madrid""","""CasadeCampo""",false,10,"""rent""",950.0,16.0,"""36975984""","""flat""","""Madrid""",1,false,60.0,"""good""","""https://img3.idealista.com/blur/WEB_LISTING/0/id.pro.es.image.master/d7/4d/57/207606222.jpg""","""PisoenAvenidadevalladolid""",,"""https://www.idealista.com/inmueble/36975984/""",,,,,,,,,,,,,,
109,"""LaAvanzada-LaCueva""",1,"""es""","""15153""","""LaAvanzada-LaCueva""",true,"""20014""","""1""",false,false,true,false,false,,40.2955304,-3.785109,"""Fuenlabrada""",,false,24,"""rent""",700.0,9.0,"""88027184""","""flat""","""Madrid""",3,false,80.0,"""good""","""https://img3.idealista.com/blur/WEB_LISTING/0/id.pro.es.image.master/c7/02/44/736782678.jpg""","""Piso""",,"""https://www.idealista.com/inmueble/88027184/""",,,,,,,,,,,,,,
110,"""MORALEJA""",2,"""es""","""40388""","""Centro""",false,,,false,false,,false,false,true,40.5642251,-3.2667917,"""AzuquecadeHenares""",,false,18,"""rent""",1000.0,4.0,"""88027173""","""chalet""","""Guadalajara""",3,false,253.0,"""good""","""https://img3.idealista.com/blur/WEB_LISTING/0/id.pro.es.image.master/76/9b/be/736782602.jpg""","""ChaletadosadoenMORALEJA""","""chalet""","""https://www.idealista.com/inmueble/88027173/""",,,,,,,,,,,,,,
112,"""CalledelPrincipedeVergara""",2,"""es""","""5211""","""Chamartin""",true,,"""4""",false,false,true,false,false,,40.4587773,-3.6761106,"""Madrid""","""NuevaEspana""",false,19,"""rent""",1500.0,16.0,"""88027156""","""flat""","""Madrid""",3,false,95.0,"""good""","""https://img3.idealista.com/blur/WEB_LISTING/0/id.pro.es.image.master/0d/53/d6/736781996.jpg""","""PisoenCalledelPrincipedeVergara""",,"""https://www.idealista.com/inmueble/88027156/""",,,,,,,,,,,,,,
113,"""CalleALCALA""",1,"""es""","""4886""","""CiudadLineal""",true,"""P.AZUL""","""1""",false,false,true,false,false,,40.4316516,-3.6489588,"""Madrid""","""Quintana""",false,4,"""rent""",850.0,12.0,"""88027083""","""flat""","""Madrid""",1,false,73.0,"""good""","""https://img3.idealista.com/blur/WEB_LISTING/0/id.pro.es.image.master/f3/36/43/736781887.jpg""","""PisoenCalleALCALA""",,"""https://www.idealista.com/inmueble/88027083/""",,,,,,,,,,,,,,
114,"""CalleMayor""",1,"""es""","""13421""","""Centro""",false,"""VM8-Mayor""","""3""",false,false,true,true,true,,40.3429206,-3.8286619,"""Alcorcon""","""CascoAntiguo""",false,22,"""rent""",800.0,11.0,"""88027103""","""flat""","""Madrid""",3,false,71.0,"""good""","""https://img3.idealista.com/blur/WEB_LISTING/0/id.pro.es.image.master/3d/b0/73/725170258.jpg""","""PisoenCalleMayor""",,"""https://www.idealista.com/inmueble/88027103/""",,,,,,,,,,,,,,
115,"""CallelosYebenes""",2,"""es""","""4639""","""Latina""",false,"""VMF11-LOSYEBENES""","""5""",false,false,true,false,true,,40.3981508,-3.7523339,"""Madrid""","""Lucero""",false,25,"""rent""",1000.0,12.0,"""88027115""","""flat""","""Madrid""",4,false,85.0,"""good""","""https://img3.idealista.com/blur/WEB_LISTING/0/id.pro.es.image.master/ec/ff/69/736781171.jpg""","""PisoenCallelosYebenes""",,"""https://www.idealista.com/inmueble/88027115/""",,,,,,,,,,,,,,
116,"""barrioLasMatas-Penascales""",2,"""es""","""22783""","""LasMatas-Penascales""",false,"""ALQ-BOA-18036""",,false,false,,false,false,true,40.5545718,-3.9025633,"""LasRozasdeMadrid""","""LasMatas-Penascales""",false,11,"""rent""",1550.0,7.0,"""83434465""","""chalet""","""Madrid""",4,false,220.0,"""good""","""https://img3.idealista.com/blur/WEB_LISTING/0/id.pro.es.image.master/8f/c1/90/617953389.jpg""","""Chaletadosado""","""chalet""","""https://www.idealista.com/inmueble/83434465/""",,,,,,,,,,,,,,
117,"""BISPO""",2,"""es""","""18208""","""Centro""",true,,"""1""",false,false,false,false,false,true,40.3589696,-3.9044514,"""VillaviciosadeOdon""",,false,22,"""rent""",1000.0,11.0,"""88027112""","""duplex""","""Madrid""",2,false,95.0,"""good""","""https://img3.idealista.com/blur/WEB_LISTING/0/id.pro.es.image.master/51/ba/39/736783635.jpg""","""D\u00faplexenBISPO""","""flat""","""https://www.idealista.com/inmueble/88027112/""",,,,,,,,,,,,,,
118,"""talavera""",1,"""es""","""4378""","""Chamartin""",true,,"""5""",false,false,true,false,false,,40.4521075,-3.6806079,"""Madrid""","""Bernabeu-Hispanoamerica""",false,7,"""rent""",1100.0,19.0,"""88027100""","""flat""","""Madrid""",1,false,58.0,"""good""","""https://img3.idealista.com/blur/WEB_LISTING/0/id.pro.es.image.master/8e/df/f9/736781270.jpg""","""Pisoentalavera""",,"""https://www.idealista.com/inmueble/88027100/""",,,,,,,,,,,,,,
119,"""CalledelaAbada""",3,"""es""","""452""","""Centro""",true,,"""4""",false,false,true,true,true,,40.4207354,-3.703912,"""Madrid""","""Sol""",false,32,"""rent""",1800.0,10.0,"""88027086""","""flat""","""Madrid""",3,false,172.0,"""good""","""https://img3.idealista.com/blur/WEB_LISTING/0/id.pro.es.image.master/fe/a4/c7/736780577.jpg""","""PisoenCalledelaAbada""",,"""https://www.idealista.com/inmueble/88027086/""",,,,,,,,,,,,,,
120,"""CalledeAyala""",2,"""es""","""2019""","""Salamanca""",true,,"""4""",false,false,true,false,false,,40.4269733,-3.6835715,"""Madrid""","""Recoletos""",false,41,"""rent""",2500.0,21.0,"""88027076""","""flat""","""Madrid""",2,false,120.0,"""good""","""https://img3.idealista.com/blur/WEB_LISTING/0/id.pro.es.image.master/00/24/67/736780665.jpg""","""PisoenCalledeAyala""",,"""https://www.idealista.com/inmueble/88027076/""",,,,,,,,,,,,,,
122,"""barrioRecoletos""",2,"""es""","""1735""","""Salamanca""",true,"""3044""","""2""",false,false,true,true,false,true,40.4237802,-3.6849836,"""Madrid""","""Recoletos""",false,14,"""rent""",2500.0,17.0,"""88026991""","""flat""","""Madrid""",3,false,150.0,"""good""","""https://img3.idealista.com/blur/WEB_LISTING/0/id.pro.es.image.master/86/5c/a8/736779779.jpg""","""Piso""",,"""https://www.idealista.com/inmueble/88026991/""",,,,,,,,,,,,,,
123,"""CalleBravoMurillo""",2,"""es""","""3985""","""Tetuan""",true,"""Hernan""","""3""",false,false,true,false,false,,40.4525457,-3.7037363,"""Madrid""","""BellasVistas""",false,19,"""rent""",1650.0,18.0,"""88027028""","""flat""","""Madrid""",3,false,90.0,"""good""","""https://img3.idealista.com/blur/WEB_LISTING/0/id.pro.es.image.master/c9/79/cc/736779947.jpg""","""PisoenCalleBravoMurillo""",,"""https://www.idealista.com/inmueble/88027028/""",,,,,,,,,,,,,,
124,"""CalledeN\u00fanezdeBalboa""",2,"""es""","""2380""","""Salamanca""",true,,"""5""",false,false,true,false,false,false,40.4317587,-3.683256,"""Madrid""","""Castellana""",false,9,"""rent""",1800.0,16.0,"""88026999""","""flat""","""Madrid""",2,false,110.0,"""good""","""https://img3.idealista.com/blur/WEB_LISTING/0/id.pro.es.image.master/48/71/4a/736779386.jpg""","""PisoenCalledeN\u00fanezdeBalboa""",,"""https://www.idealista.com/inmueble/88026999/""",,,,,,100.0,,,,,,,,
125,,3,"""es""","""3242""","""Chamberi""",true,"""PA-CABMM""","""1""",false,false,true,false,false,,40.4451354,-3.6947729,"""Madrid""","""NuevosMinisterios-RiosRosas""",false,22,"""rent""",3200.0,14.0,"""88032438""","""flat""","""Madrid""",4,false,225.0,"""good""","""https://img3.idealista.com/blur/WEB_LISTING/0/id.pro.es.image.master/01/76/5d/736903371.jpg""","""PisoenCalleAgustindeBetancourt""",,"""https://www.idealista.com/inmueble/88032438/""","""CalleAgustindeBetancourt""",,,,,,,,,,,,,
126,"""barrioRecoletos""",1,"""es""","""1858""","""Salamanca""",true,"""03422""","""4""",false,false,true,true,true,,40.425055,-3.6842277,"""Madrid""","""Recoletos""",false,17,"""rent""",1850.0,18.0,"""88028858""","""flat""","""Madrid""",1,false,105.0,"""good""","""https://img3.idealista.com/blur/WEB_LISTING/0/id.pro.es.image.master/97/df/7c/736877363.jpg""","""Piso""",,"""https://www.idealista.com/inmueble/88028858/""",,,,,,,,,,,,,,
127,"""CalledelaSantisimaTrinidad""",2,"""es""","""2015""","""Chamberi""",true,,"""1""",false,false,true,false,false,true,40.4346912,-3.7003236,"""Madrid""","""Trafalgar""",false,32,"""rent""",2500.0,17.0,"""88032389""","""flat""","""Madrid""",4,false,150.0,"""good""","""https://img3.idealista.com/blur/WEB_LISTING/0/id.pro.es.image.master/b8/cc/56/736902939.jpg""","""PisoenCalledelaSantisimaTrinidad""",,"""https://www.idealista.com/inmueble/88032389/""",,,,,,,,,,,,,,
128,"""CalledeNarvaez",2,"""es""","""2399""","""Salamanca""",true,"""AH-370""","""3""",false,false,true,false,false,,40.4219594,-3.6757642,"""Madrid""","""Goya""",false,15,"""rent""",2500.0,14.0,"""88032400""","""flat""","""Madrid""",3,true,178.0,"""good""","""https://img3.idealista.com/blur/WEB_LISTING/0/id.pro.es.image.master/fb/d3/28/736902744.jpg""","""PisoenCalledeNarvaez",,"""https://www.idealista.com/inmueble/88032400/""",,,,,,,,,,,,,,
129,"""CalledeJulianRomea""",1,"""es""","""3036""","""Chamberi""",true,,"""2""",false,false,true,false,false,,40.4416708,-3.717761,"""Madrid""","""Vallehermoso""",false,10,"""rent""",1350.0,21.0,"""88032395""","""flat""","""Madrid""",1,false,65.0,"""good""","""https://img3.idealista.com/blur/WEB_LISTING/0/id.pro.es.image.master/ab/85/2e/736902402.jpg""","""PisoenCalledeJulianRomea""",,"""https://www.idealista.com/inmueble/88032395/""",,,,,,,,,,,,,,
130,"""barrioJeronimos""",1,"""es""","""1061""","""Retiro""",true,,"""5""",false,false,true,false,false,false,40.4151731,-3.6908691,"""Madrid""","""Jeronimos""",false,13,"""rent""",1000.0,16.0,"""88032370""","""flat""","""Madrid""",1,false,62.0,"""good""","""https://img3.idealista.com/blur/WEB_LISTING/0/id.pro.es.image.master/48/d1/c9/736902311.jpg""","""Piso""",,"""https://www.idealista.com/inmueble/88032370/""",,,,,,175.0,,,,,,,,
131,"""Valleaguado-LaCanada""",2,"""es""","""13862""","""Valleaguado-LaCanada""",true,"""1611/208""","""bj""",false,false,false,false,false,,40.4276587,-3.540118,"""Coslada""",,false,13,"""rent""",725.0,10.0,"""88032312""","""flat""","""Madrid""",2,false,76.0,"""good""","""https://img3.idealista.com/blur/WEB_LISTING/0/id.pro.es.image.master/95/a3/f5/736901903.jpg""","""Piso""",,"""https://www.idealista.com/inmueble/88032312/""",,,,,,,,,,,,,,
132,"""Suroeste""",2,"""es""","""19712""","""Suroeste""",true,"""397/1350""","""3""",false,false,true,false,false,true,40.4434311,-3.4730116,"""TorrejondeArdoz""",,false,21,"""rent""",900.0,6.0,"""88032365""","""flat""","""Madrid""",3,false,144.0,"""good""","""https://img3.idealista.com/blur/WEB_LISTING/0/id.pro.es.image.master/94/09/db/736901802.jpg""","""Piso""",,"""https://www.idealista.com/inmueble/88032365/""",,,,,,,,,,,,,,
133,"""CalleVirtudes""",2,"""es""","""2290""","""Chamberi""",true,,"""3""",false,false,true,false,false,,40.4370829,-3.6993578,"""Madrid""","""Almagro""",false,25,"""rent""",2100.0,17.0,"""88032332""","""flat""","""Madrid""",3,false,125.0,"""good""","""https://img3.idealista.com/blur/WEB_LISTING/0/id.pro.es.image.master/83/d2/58/736901608.jpg""","""PisoenCalleVirtudes""",,"""https://www.idealista.com/inmueble/88032332/""",,,,,,,,,,,,,,
134,"""Calledejoaquinmarialopez""",1,"""es""","""2752""","""Chamberi""",true,"""1354""","""5""",false,false,true,false,false,,40.4395115,-3.7158701,"""Madrid""","""Gaztambide""",false,17,"""rent""",900.0,18.0,"""34350001""","""flat""","""Madrid""",1,false,49.0,"""good""","""https://img3.idealista.com/blur/WEB_LISTING/0/id.pro.es.image.master/fd/a4/9a/163155084.jpg""","""PisoenCalledejoaquinmarialopez""",,"""https://www.idealista.com/inmueble/34350001/""",,,,,,,,,,,,,,
135,"""Calledoctoresquerdo",1,"""es""","""2940""","""Retiro""",true,"""Cla/barbara/87""","""2""",false,false,true,false,false,,40.4031319,-3.6734386,"""Madrid""","""Pacifico""",false,40,"""rent""",790.0,16.0,"""88032328""","""flat""","""Madrid""",1,true,50.0,"""good""","""https://img3.idealista.com/blur/WEB_LISTING/0/id.pro.es.image.master/18/0c/46/736901990.jpg""","""PisoenCalledoctoresquerdo",,"""https://www.idealista.com/inmueble/88032328/""",,,,,,,,,,,,,,
136,"""CalledelGeneralPardinas""",1,"""es""","""2569""","""Salamanca""",false,"""SAP-918""","""1""",false,false,true,false,false,,40.4284735,-3.6771296,"""Madrid""","""Goya""",false,21,"""rent""",1100.0,18.0,"""88032341""","""flat""","""Madrid""",2,false,60.0,"""good""","""https://img3.idealista.com/blur/WEB_LISTING/0/id.pro.es.image.master/5f/9f/59/736901205.jpg""","""PisoenCalledelGeneralPardinas""",,"""https://www.idealista.com/inmueble/88032341/""",,,,,,,,,,,,,,
137,"""barrioGoya""",2,"""es""","""2957""","""Salamanca""",true,"""SAP-3808""","""4""",false,false,true,false,false,,40.4285696,-3.6719847,"""Madrid""","""Goya""",false,20,"""rent""",1450.0,16.0,"""88032338""","""flat""","""Madrid""",2,false,90.0,"""good""","""https://img3.idealista.com/blur/WEB_LISTING/0/id.pro.es.image.master/8b/4a/17/736901168.jpg""","""Piso""",,"""https://www.idealista.com/inmueble/88032338/""",,,,,,,,,,,,,,
138,"""barrioLucero""",1,"""es""","""3621""","""Latina""",true,"""alq-lu""","""3""",false,false,false,false,false,,40.4053659,-3.7433469,"""Madrid""","""Lucero""",false,13,"""rent""",650.0,13.0,"""88032323""","""flat""","""Madrid""",1,false,50.0,"""good""","""https://img3.idealista.com/blur/WEB_LISTING/0/id.pro.es.image.master/8d/90/ac/736901173.jpg""","""Piso""",,"""https://www.idealista.com/inmueble/88032323/""",,,,,,,,,,,,,,
139,"""SesenaNuevo""",3,"""es""","""34362""","""SesenaNuevo""",false,,,false,false,,false,false,true,40.1096415,-3.6574192,"""Sesena""",,false,27,"""rent""",800.0,5.0,"""88032318""","""chalet""","""Toledo""",3,false,170.0,"""good""","""https://img3.idealista.com/blur/WEB_LISTING/0/id.pro.es.image.master/84/db/16/736901056.jpg""","""Chaletadosado""","""chalet""","""https://www.idealista.com/inmueble/88032318/""",,,,,,,,,,,,,,
140,"""CalledeModestoLafuente""",1,"""es""","""3190""","""Chamberi""",true,,"""5""",false,false,true,false,false,,40.444918,-3.6964284,"""Madrid""","""NuevosMinisterios-RiosRosas""",false,21,"""rent""",1700.0,19.0,"""88032299""","""flat""","""Madrid""",2,false,89.0,"""good""","""https://img3.idealista.com/blur/WEB_LISTING/0/id.pro.es.image.master/0b/d5/5e/736900714.jpg""","""PisoenCalledeModestoLafuente""",,"""https://www.idealista.com/inmueble/88032299/""",,,,,,,,,,,,,,
141,"""AvenidadelCardenalHerreraOria""",2,"""es""","""7550""","""Fuencarral""",true,,"""15""",false,false,true,true,false,true,40.4843999,-3.7101487,"""Madrid""","""Pilar""",false,8,"""rent""",1800.0,11.0,"""88032290""","""flat""","""Madrid""",4,false,160.0,"""good""","""https://img3.idealista.com/blur/WEB_LISTING/0/id.pro.es.image.master/3a/f5/db/736900307.jpg""","""PisoenAvenidadelCardenalHerreraOria""",,"""https://www.idealista.com/inmueble/88032290/""",,,,,,,,,,,,,,
142,"""barrioCiudadJardin""",2,"""es""","""4118""","""Chamartin""",true,"""03421""","""2""",false,false,true,true,true,false,40.4486134,-3.6785514,"""Madrid""","""CiudadJardin""",false,13,"""rent""",1990.0,19.0,"""88028360""","""flat""","""Madrid""",2,false,106.0,"""good""","""https://img3.idealista.com/blur/WEB_LISTING/0/id.pro.es.image.master/e2/cf/12/736826307.jpg""","""Piso""",,"""https://www.idealista.com/inmueble/88028360/""",,,,,,160.0,,,,,,,,
143,"""barrioMalasana-Universidad""",1,"""es""","""647""","""Centro""",true,"""03269""","""2""",false,false,true,true,true,,40.4225187,-3.7029291,"""Madrid""","""Malasana-Universidad""",false,11,"""rent""",1495.0,21.0,"""88032133""","""flat""","""Madrid""",1,false,70.0,"""good""","""https://img3.idealista.com/blur/WEB_LISTING/0/id.pro.es.image.master/09/a2/1d/736896802.jpg""","""Piso""",,"""https://www.idealista.com/inmueble/88032133/""",,,,,,,,,,,,,,
144,"""barrioVentilla-Almenara""",1,"""es""","""6372""","""Tetuan""",true,,"""1""",false,false,false,false,false,,40.4732822,-3.6912705,"""Madrid""","""Ventilla-Almenara""",false,10,"""rent""",800.0,17.0,"""88032180""","""flat""","""Madrid""",1,false,48.0,"""good""","""https://img3.idealista.com/blur/WEB_LISTING/0/id.pro.es.image.master/9f/a9/91/736900227.jpg""","""Piso""",,"""https://www.idealista.com/inmueble/88032180/""",,,,,,,false,20,0,0,true,"""Alquilar""",12973,649
145,,1,"""es""","""5199""","""Chamartin""",true,,"""5""",false,false,true,false,false,true,40.4596847,-3.6790631,"""Madrid""","""NuevaEspana""",false,15,"""rent""",1375.0,20.0,"""88032131""","""penthouse""","""Madrid""",1,false,70.0,"""good""","""https://img3.idealista.com/blur/WEB_LISTING/0/id.pro.es.image.master/70/0c/cc/736896041.jpg""","""AticoenCalledeHonduras""","""flat""","""https://www.idealista.com/inmueble/88032131/""","""CalledeHonduras""",,,,,,,,,,,,,
146,"""Viagrans/n""",2,"""es""","""368""","""Centro""",true,,"""4""",false,false,true,false,false,,40.4199886,-3.7037561,"""Madrid""","""Sol""",false,31,"""rent""",3000.0,34.0,"""88032129""","""flat""","""Madrid""",2,true,88.0,"""good""","""https://img3.idealista.com/blur/WEB_LISTING/0/id.pro.es.image.master/b8/de/6d/736896114.jpg""","""PisoenViagrans/n""",,"""https://www.idealista.com/inmueble/88032129/""",,,,,,,,,,,,,,
147,"""Suroeste""",1,"""es""","""17719""","""Suroeste""",true,"""RP114201965336""","""5""",false,false,false,false,false,,40.3192284,-3.8687362,"""Mostoles""",,false,12,"""rent""",700.0,9.0,"""88032100""","""flat""","""Madrid""",3,false,82.0,,"""https://img3.idealista.com/blur/WEB_LISTING/0/id.pro.es.image.master/33/77/6c/736895499.jpg""","""Piso""",,"""https://www.idealista.com/inmueble/88032100/""",,,,,,,,,,,,,,
148,"""CalleGurtubay""",3,"""es""","""1602""","""Salamanca""",true,,"""5""",false,false,true,false,false,,40.4217538,-3.6855242,"""Madrid""","""Recoletos""",false,41,"""rent""",4000.0,14.0,"""88032094""","""flat""","""Madrid""",3,false,276.0,"""good""","""https://img3.idealista.com/blur/WEB_LISTING/0/id.pro.es.image.master/05/8f/38/736895988.jpg""","""PisoenCalleGurtubay""",,"""https://www.idealista.com/inmueble/88032094/""",,,,,,,,,,,,,,
149,"""CalledeVallehermoso""",1,"""es""","""2494""","""Chamberi""",true,"""AT-VALLEHERMOSO1000""","""1""",false,false,true,true,true,,40.4385787,-3.7097754,"""Madrid""","""Vallehermoso""",false,26,"""rent""",1000.0,23.0,"""88032090""","""flat""","""Madrid""",1,false,43.0,"""good""","""https://img3.idealista.com/blur/WEB_LISTING/0/id.pro.es.image.master/f7/a0/63/736895219.jpg""","""PisoenCalledeVallehermoso""",,"""https://www.idealista.com/inmueble/88032090/""",,,,,,,,,,,,,,
150,"""CalledeAlonsoCano""",1,"""es""","""2696""","""Chamberi""",true,"""CM2697-291119""","""5""",false,false,true,false,false,,40.4406594,-3.6983462,"""Madrid""","""NuevosMinisterios-RiosRosas""",false,10,"""rent""",1100.0,24.0,"""88032087""","""flat""","""Madrid""",1,false,45.0,"""good""","""https://img3.idealista.com/blur/WEB_LISTING/0/id.pro.es.image.master/ff/bf/d8/736895368.jpg""","""PisoenCalledeAlonsoCano""",,"""https://www.idealista.com/inmueble/88032087/""",,,,,,,,,,,,,,
151,"""CalleGermanPerezCarrasco""",1,"""es""","""5170""","""CiudadLineal""",true,,"""6""",false,false,true,false,false,,40.4360514,-3.6477025,"""Madrid""","""Quintana""",false,38,"""rent""",850.0,12.0,"""88032071""","""flat""","""Madrid""",2,false,73.0,"""good""","""https://img3.idealista.com/blur/WEB_LISTING/0/id.pro.es.image.master/6a/6e/c3/725578275.jpg""","""PisoenCalleGermanPerezCarrasco""",,"""https://www.idealista.com/inmueble/88032071/""",,,,,,,,,,,,,,
152,"""CalleEtna",1,"""es""","""5657""","""PuentedeVallecas""",true,"""2803-011348-02""","""4""",false,false,true,false,false,,40.3881131,-3.6479712,"""Madrid""","""Portazgo""",false,10,"""rent""",625.0,13.0,"""88032050""","""flat""","""Madrid""",2,true,50.0,"""good""","""https://img3.idealista.com/blur/WEB_LISTING/0/id.pro.es.image.master/1e/06/70/736893997.jpg""","""PisoenCalleEtna",,"""https://www.idealista.com/inmueble/88032050/""",,,,,,,,,,,,,,
153,"""barrioCondeOrgaz-Piovera""",5,"""es""","""7538""","""Hortaleza""",false,"""MAA00073""",,false,false,,false,false,true,40.4569208,-3.6315368,"""Madrid""","""CondeOrgaz-Piovera""",false,5,"""rent""",5600.0,14.0,"""36717402""","""chalet""","""Madrid""",5,false,400.0,"""good""","""https://img3.idealista.com/blur/WEB_LISTING/0/id.pro.es.image.master/2c/db/19/202758075.jpg""","""Chaletadosado""","""chalet""","""https://www.idealista.com/inmueble/36717402/""",,,,,,,,,,,,,,
154,"""CalleSanIgnaciodeLoyola",1,"""es""","""29180""","""Chorrillo""",true,"""2830-015914-02""","""4""",false,false,false,false,false,,40.4906915,-3.3723488,"""AlcaladeHenares""",,false,10,"""rent""",600.0,9.0,"""88032043""","""flat""","""Madrid""",3,true,70.0,"""good""","""https://img3.idealista.com/blur/WEB_LISTING/0/id.pro.es.image.master/a8/54/a6/736894136.jpg""","""PisoenCalleSanIgnaciodeLoyola",,"""https://www.idealista.com/inmueble/88032043/""",,,,,,,,,,,,,,
155,"""CalleSerradilla",1,"""es""","""7879""","""Latina""",true,"""2801-017348-01""","""2""",false,false,true,false,false,,40.37958,-3.78251,"""Madrid""","""Aguilas""",false,24,"""rent""",695.0,9.0,"""88032049""","""flat""","""Madrid""",3,true,80.0,"""good""","""https://img3.idealista.com/blur/WEB_LISTING/0/id.pro.es.image.master/43/be/ac/736893885.jpg""","""PisoenCalleSerradilla",,"""https://www.idealista.com/inmueble/88032049/""",,,,,,,,,,,,,,
156,"""CalledelaInfantaMercedes",1,"""es""","""5322""","""Tetuan""",true,"""2815-017347-01""","""3""",false,false,true,false,false,,40.4638689,-3.6925503,"""Madrid""","""Cuzco-Castillejos""",false,30,"""rent""",1090.0,18.0,"""88032045""","""flat""","""Madrid""",2,true,60.0,"""good""","""https://img3.idealista.com/blur/WEB_LISTING/0/id.pro.es.image.master/8e/15/8d/736893828.jpg""","""PisoenCalledelaInfantaMercedes",,"""https://www.idealista.com/inmueble/88032045/""",,,,,,,,,,,,,,
157,"""CalledelArroyodelOlivar""",1,"""es""","""5168""","""PuentedeVallecas""",true,,"""4""",false,false,false,false,false,,40.3892686,-3.6539763,"""Madrid""","""PalomerasBajas""",false,12,"""rent""",750.0,14.0,"""88032037""","""flat""","""Madrid""",2,false,55.0,"""good""","""https://img3.idealista.com/blur/WEB_LISTING/90/id.pro.es.image.master/81/aa/1d/736893677.jpg""","""PisoenCalledelArroyodelOlivar""",,"""https://www.idealista.com/inmueble/88032037/""",,,,,,,,,,,,,,
158,"""CalledeJacintoVerdaguer""",1,"""es""","""2242""","""Carabanchel""",true,"""0A-LUIS-015""","""1""",false,false,false,false,false,,40.3979726,-3.7130668,"""Madrid""","""Comillas""",false,4,"""rent""",700.0,12.0,"""88032024""","""flat""","""Madrid""",1,false,60.0,"""good""","""https://img3.idealista.com/blur/WEB_LISTING/0/id.pro.es.image.master/b2/a4/c9/736893679.jpg""","""PisoenCalledeJacintoVerdaguer""",,"""https://www.idealista.com/inmueble/88032024/""",,,,,,,,,,,,,,
159,"""CalleCerrodeAlamosBlancos",4,"""es""","""8114""","""Fuencarral""",false,,"""4""",false,false,,false,false,true,40.4871236,-3.7283977,"""Madrid""","""ArroyodelFresno""",false,14,"""rent""",2000.0,8.0,"""88032019""","""chalet""","""Madrid""",4,true,242.0,"""good""","""https://img3.idealista.com/blur/WEB_LISTING/0/id.pro.es.image.master/3e/20/0f/736893391.jpg""","""ChaletpareadoenCalleCerrodeAlamosBlancos","""chalet""","""https://www.idealista.com/inmueble/88032019/""",,,,,,,,,,,,,,
160,"""alonsodeojeda""",2,"""es""","""17031""","""SectorB""",true,,"""1""",false,false,true,true,false,true,40.4130868,-3.904383,"""BoadilladelMonte""",,false,42,"""rent""",1450.0,12.0,"""88032006""","""flat""","""Madrid""",3,false,120.0,"""good""","""https://img3.idealista.com/blur/WEB_LISTING/0/id.pro.es.image.master/67/9d/a3/736892767.jpg""","""Pisoenalonsodeojeda""",,"""https://www.idealista.com/inmueble/88032006/""",,,,,,,,,,,,,,
161,"""CalledeJaimeVera""",1,"""es""","""2241""","""Latina""",true,"""0A-LUIS-014""","""1""",false,false,false,false,false,,40.4134169,-3.7293714,"""Madrid""","""PuertadelAngel""",false,5,"""rent""",700.0,12.0,"""88032002""","""flat""","""Madrid""",1,false,60.0,"""good""","""https://img3.idealista.com/blur/WEB_LISTING/0/id.pro.es.image.master/65/25/be/736892825.jpg""","""PisoenCalledeJaimeVera""",,"""https://www.idealista.com/inmueble/88032002/""",,,,,,,,,,,,,,
162,"""CalledelaFlora""",2,"""es""","""361""","""Centro""",false,"""CM2657-081119""","""2""",false,false,true,false,false,,40.4174269,-3.7074103,"""Madrid""","""Sol""",false,11,"""rent""",1500.0,21.0,"""88031929""","""flat""","""Madrid""",2,false,70.0,"""good""","""https://img3.idealista.com/blur/WEB_LISTING/0/id.pro.es.image.master/db/a6/3a/736891579.jpg""","""PisoenCalledelaFlora""",,"""https://www.idealista.com/inmueble/88031929/""",,,,,,,,,,,,,,
163,"""AvenidaOporto""",1,"""es""","""3942""","""Carabanchel""",true,"""0A-LUIS-013""","""1""",false,false,false,false,false,,40.3885954,-3.7316328,"""Madrid""","""PuertaBonita""",false,4,"""rent""",700.0,12.0,"""88031944""","""flat""","""Madrid""",1,false,60.0,"""good""","""https://img3.idealista.com/blur/WEB_LISTING/0/id.pro.es.image.master/cd/bb/8b/736891307.jpg""","""PisoenAvenidaOporto""",,"""https://www.idealista.com/inmueble/88031944/""",,,,,,,,,,,,,,
164,"""CalledeAlburquerque""",2,"""es""","""1582""","""Chamberi""",true,"""W-A-3139""","""1""",false,false,false,true,false,false,40.4307543,-3.70027,"""Madrid""","""Trafalgar""",false,38,"""rent""",1400.0,20.0,"""88031920""","""duplex""","""Madrid""",2,false,70.0,"""good""","""https://img3.idealista.com/blur/WEB_LISTING/0/id.pro.es.image.master/80/5e/18/736890900.jpg""","""D\u00faplexenCalledeAlburquerque""","""flat""","""https://www.idealista.com/inmueble/88031920/""",,,,,,130.0,false,20,20,0,true,"""Alquilar""",12973,649
165,,1,"""es""","""6389""","""Chamartin""",true,,"""5""",false,false,true,false,false,,40.4706446,-3.677228,"""Madrid""","""Castilla""",false,9,"""rent""",1500.0,16.0,"""88031919""","""penthouse""","""Madrid""",2,false,95.0,"""good""","""https://img3.idealista.com/blur/WEB_LISTING/0/id.pro.es.image.master/cf/27/2c/736890586.jpg""","""AticoenCalleBuganvilla""","""flat""","""https://www.idealista.com/inmueble/88031919/""","""CalleBuganvilla""",,,,,,,,,,,,,
166,"""Almirante""",3,"""es""","""1119""","""Centro""",true,,"""1""",false,false,true,true,true,,40.424461,-3.6948189,"""Madrid""","""Chueca-Justicia""",false,18,"""rent""",2800.0,18.0,"""88031909""","""flat""","""Madrid""",4,false,160.0,"""good""","""https://img3.idealista.com/blur/WEB_LISTING/0/id.pro.es.image.master/c8/25/f7/736890392.jpg""","""PisoenAlmirante""",,"""https://www.idealista.com/inmueble/88031909/""",,,,,,,,,,,,,,
167,"""CalledeAlcala",2,"""es""","""2820""","""Salamanca""",true,"""XA-ALCALA1450""","""4""",false,false,true,true,true,,40.4274696,-3.6730847,"""Madrid""","""Goya""",false,23,"""rent""",1450.0,15.0,"""84523783""","""flat""","""Madrid""",2,false,100.0,"""good""","""https://img3.idealista.com/blur/WEB_LISTING/0/id.pro.es.image.master/3f/bb/6f/641035029.jpg""","""PisoenCalledeAlcala",,"""https://www.idealista.com/inmueble/84523783/""",,,,,,,,,,,,,,
168,"""CalledelAmorHermoso""",1,"""es""","""3353""","""Usera""",true,"""0A-NICO-095""","""1""",false,false,false,false,false,,40.3865466,-3.7037417,"""Madrid""","""Almendrales""",false,7,"""rent""",675.0,11.0,"""88031887""","""flat""","""Madrid""",1,false,60.0,"""good""","""https://img3.idealista.com/blur/WEB_LISTING/0/id.pro.es.image.master/cd/38/0c/736889953.jpg""","""PisoenCalledelAmorHermoso""",,"""https://www.idealista.com/inmueble/88031887/""",,,,,,,,,,,,,,
169,"""Zurbano""",1,"""es""","""2261""","""Chamberi""",false,,"""3""",false,false,true,false,false,,40.4349881,-3.6915476,"""Madrid""","""Almagro""",false,19,"""rent""",1200.0,14.0,"""88031090""","""flat""","""Madrid""",1,false,85.0,"""good""","""https://img3.idealista.com/blur/WEB_LISTING/0/id.pro.es.image.master/32/e2/15/736875832.jpg""","""PisoenZurbano""",,"""https://www.idealista.com/inmueble/88031090/""",,,,,,,,,,,,,,
170,"""barrioTresOlivos-Valverde""",1,"""es""","""7699""","""Fuencarral""",true,"""KJP'9""","""4""",false,false,false,false,false,,40.4848707,-3.6872431,"""Madrid""","""TresOlivos-Valverde""",false,8,"""rent""",835.0,13.0,"""88031825""","""flat""","""Madrid""",2,false,65.0,"""good""","""https://img3.idealista.com/blur/WEB_LISTING/0/id.pro.es.image.master/f8/20/98/736888728.jpg""","""Piso""",,"""https://www.idealista.com/inmueble/88031825/""",,,,,,,,,,,,,,
171,"""AvenidaDonostiarra",1,"""es""","""4238""","""CiudadLineal""",false,,"""2""",false,false,true,false,false,,40.4347165,-3.6591155,"""Madrid""","""Concepcion""",false,16,"""rent""",1000.0,14.0,"""88031811""","""flat""","""Madrid""",2,true,70.0,"""good""","""https://img3.idealista.com/blur/WEB_LISTING/0/id.pro.es.image.master/86/70/30/736888895.jpg""","""PisoenAvenidaDonostiarra",,"""https://www.idealista.com/inmueble/88031811/""",,,,,,,,,,,,,,
172,"""CalledeAntonioLopez""",1,"""es""","""2937""","""Usera""",true,"""0A-NICO-094""","""1""",false,false,false,false,false,,40.3902848,-3.7031331,"""Madrid""","""Moscardo""",false,5,"""rent""",675.0,11.0,"""88031803""","""flat""","""Madrid""",1,false,60.0,"""good""","""https://img3.idealista.com/blur/WEB_LISTING/0/id.pro.es.image.master/ef/6f/40/736888445.jpg""","""PisoenCalledeAntonioLopez""",,"""https://www.idealista.com/inmueble/88031803/""",,,,,,,,,,,,,,
173,"""barrioLaPaz""",2,"""es""","""7446""","""Fuencarral""",true,"""pk""","""1""",false,false,true,false,false,true,40.4833127,-3.6941441,"""Madrid""","""LaPaz""",false,35,"""rent""",1700.0,11.0,"""88031799""","""flat""","""Madrid""",3,false,155.0,"""good""","""https://img3.idealista.com/blur/WEB_LISTING/0/id.pro.es.image.master/26/02/5b/736890976.jpg""","""Piso""",,"""https://www.idealista.com/inmueble/88031799/""",,,,,,,,,,,,,,
174,"""barrioArapiles""",1,"""es""","""1645""","""Chamberi""",false,"""W-A-3124""","""5""",false,false,true,true,false,,40.4309127,-3.708655,"""Madrid""","""Arapiles""",false,14,"""rent""",850.0,15.0,"""86698275""","""flat""","""Madrid""",1,false,55.0,"""good""","""https://img3.idealista.com/blur/WEB_LISTING/0/id.pro.es.image.master/fc/8a/f3/700612873.jpg""","""Piso""",,"""https://www.idealista.com/inmueble/86698275/""",,,,,,,,,,,,,,
175,"""CalledeGoya""",1,"""es""","""2911""","""Salamanca""",false,"""CM2679-201119""","""6""",false,false,true,false,false,true,40.4247496,-3.6705175,"""Madrid""","""Goya""",false,7,"""rent""",1050.0,15.0,"""88031776""","""flat""","""Madrid""",1,false,68.0,"""good""","""https://img3.idealista.com/blur/WEB_LISTING/0/id.pro.es.image.master/f7/17/a6/736887569.jpg""","""PisoenCalledeGoya""",,"""https://www.idealista.com/inmueble/88031776/""",,,,,,,,,,,,,,
176,"""CalledelAmparo""",1,"""es""","""625""","""Centro""",true,"""LA121219AM""","""1""",false,false,true,false,false,,40.4112401,-3.7050335,"""Madrid""","""Lavapies-Embajadores""",false,22,"""rent""",1000.0,16.0,"""88031768""","""flat""","""Madrid""",1,false,62.0,"""good""","""https://img3.idealista.com/blur/WEB_LISTING/0/id.pro.es.image.master/c9/ff/a4/736887224.jpg""","""PisoenCalledelAmparo""",,"""https://www.idealista.com/inmueble/88031768/""",,,,,,,,,,,,,,
178,"""CalleInfantaMariaTeresa""",2,"""es""","""4360""","""Chamartin""",true,,"""6""",false,false,true,false,false,,40.4528278,-3.6831975,"""Madrid""","""Bernabeu-Hispanoamerica""",false,32,"""rent""",2800.0,18.0,"""88031720""","""flat""","""Madrid""",3,false,157.0,"""good""","""https://img3.idealista.com/blur/WEB_LISTING/0/id.pro.es.image.master/87/13/61/736892669.jpg""","""PisoenCalleInfantaMariaTeresa""",,"""https://www.idealista.com/inmueble/88031720/""",,,,,,,,,,,,,,
179,"""Pintores-Ferial""",3,"""es""","""20541""","""Pintores-Ferial""",false,,,false,false,,false,false,true,40.2370729,-3.7598968,"""Parla""",,false,30,"""rent""",950.0,4.0,"""88031725""","""chalet""","""Madrid""",3,false,253.0,"""good""","""https://img3.idealista.com/blur/WEB_LISTING/0/id.pro.es.image.master/99/92/11/736886204.jpg""","""Chaletadosado""","""chalet""","""https://www.idealista.com/inmueble/88031725/""",,,,,,,,,,,,,,
180,"""CalledelosTresPeces""",1,"""es""","""605""","""Centro""",true,"""1224-GER""","""5""",false,false,true,false,false,,40.4118999,-3.6998839,"""Madrid""","""Lavapies-Embajadores""",false,36,"""rent""",1300.0,22.0,"""88031698""","""penthouse""","""Madrid""",1,false,59.0,"""good""","""https://img3.idealista.com/blur/WEB_LISTING/0/id.pro.es.image.master/fa/d8/7b/736885727.jpg""","""AticoenCalledelosTresPeces""","""flat""","""https://www.idealista.com/inmueble/88031698/""",,,,,,,,,,,,,,
181,"""CalleEscosura",1,"""es""","""2109""","""Chamberi""",false,,"""4""",false,false,true,true,false,,40.4354528,-3.7070627,"""Madrid""","""Arapiles""",false,38,"""rent""",1150.0,21.0,"""88031648""","""flat""","""Madrid""",1,true,55.0,"""good""","""https://img3.idealista.com/blur/WEB_LISTING/0/id.pro.es.image.master/77/a5/1b/736885064.jpg""","""PisoenCalleEscosura",,"""https://www.idealista.com/inmueble/88031648/""",,,,,,,,,,,,,,
182,"""Callemagnolias""",2,"""es""","""6370""","""Tetuan""",true,"""At-Magnolias1500""","""5""",false,false,true,false,true,,40.472831,-3.6881698,"""Madrid""","""Ventilla-Almenara""",false,46,"""rent""",1500.0,19.0,"""88031656""","""flat""","""Madrid""",2,false,80.0,"""good""","""https://img3.idealista.com/blur/WEB_LISTING/0/id.pro.es.image.master/4f/ae/c3/736887011.jpg""","""PisoenCallemagnolias""",,"""https://www.idealista.com/inmueble/88031656/""",,,,,,,,,,,,,,
183,"""CalledelPoetaJoanMaragall""",2,"""es""","""4368""","""Tetuan""",true,,"""4""",false,false,true,false,false,,40.455333,-3.6938545,"""Madrid""","""CuatroCaminos""",false,21,"""rent""",2300.0,19.0,"""88031634""","""flat""","""Madrid""",3,false,120.0,"""good""","""https://img3.idealista.com/blur/WEB_LISTING/0/id.pro.es.image.master/05/41/b2/736884892.jpg""","""PisoenCalledelPoetaJoanMaragall""",,"""https://www.idealista.com/inmueble/88031634/""",,,,,,,,,,,,,,
184,"""ParlaEste""",2,"""es""","""22154""","""ParlaEste""",true,,"""7""",false,false,true,false,false,true,40.2219022,-3.7582043,"""Parla""",,false,25,"""rent""",820.0,10.0,"""88031626""","""flat""","""Madrid""",3,false,80.0,"""good""","""https://img3.idealista.com/blur/WEB_LISTING/0/id.pro.es.image.master/1b/17/5b/736884532.jpg""","""Piso""",,"""https://www.idealista.com/inmueble/88031626/""",,,,,,,false,20,40,0,true,"""Alquilar""",12973,649
185,,1,"""es""","""3626""","""Salamanca""",true,,"""2""",false,false,true,false,false,,40.4389385,-3.6719091,"""Madrid""","""Guindalera""",false,18,"""rent""",750.0,14.0,"""88031617""","""flat""","""Madrid""",1,false,52.0,"""good""","""https://img3.idealista.com/blur/WEB_LISTING/0/id.pro.es.image.master/20/fa/41/736884228.jpg""","""Piso""",,"""https://www.idealista.com/inmueble/88031617/""","""barrioGuindalera""",,,,,,,,,,,,,
186,"""cabodegata""",3,"""es""","""18577""","""ElOlivardeMirabal""",false,"""148""",,false,false,,false,false,true,40.4213683,-3.9226216,"""BoadilladelMonte""",,false,43,"""rent""",2000.0,7.0,"""88031595""","""chalet""","""Madrid""",3,false,300.0,"""good""","""https://img3.idealista.com/blur/WEB_LISTING/0/id.pro.es.image.master/0f/21/6e/736884312.jpg""","""Chaletadosadoencabodegata""","""chalet""","""https://www.idealista.com/inmueble/88031595/""",,,,,,,,,,,,,,
187,"""PaseodelaCastellana",2,"""es""","""1724""","""Salamanca""",true,,"""4""",false,false,true,false,false,,40.4278165,-3.6890491,"""Madrid""","""Recoletos""",false,21,"""rent""",1800.0,12.0,"""88031570""","""flat""","""Madrid""",3,true,150.0,"""good""","""https://img3.idealista.com/blur/WEB_LISTING/0/id.pro.es.image.master/24/32/42/736885126.jpg""","""PisoenPaseodelaCastellana",,"""https://www.idealista.com/inmueble/88031570/""",,,,,,,,,,,,,,
189,"""barrioTrafalgar""",3,"""es""","""2151""","""Chamberi""",true,"""727""","""7""",false,false,true,false,false,,40.4356478,-3.6980915,"""Madrid""","""Trafalgar""",false,35,"""rent""",2400.0,13.0,"""88031542""","""flat""","""Madrid""",5,false,180.0,"""good""","""https://img3.idealista.com/blur/WEB_LISTING/0/id.pro.es.image.master/47/6a/6f/736882876.jpg""","""Piso""",,"""https://www.idealista.com/inmueble/88031542/""",,,,,,,,,,,,,,
190,"""CalledeSanAndres""",2,"""es""","""1367""","""Centro""",true,,"""1""",false,false,true,true,true,,40.4289643,-3.704459,"""Madrid""","""Malasana-Universidad""",false,27,"""rent""",1650.0,24.0,"""88031541""","""flat""","""Madrid""",2,false,70.0,"""good""","""https://img3.idealista.com/blur/WEB_LISTING/0/id.pro.es.image.master/39/1e/1d/736882988.jpg""","""PisoenCalledeSanAndres""",,"""https://www.idealista.com/inmueble/88031541/""",,,,,,,,,,,,,,
191,"""CalledelPoetaJoanMaragall""",2,"""es""","""4758""","""Tetuan""",true,,"""6""",false,false,true,false,false,true,40.4589721,-3.6945088,"""Madrid""","""Cuzco-Castillejos""",false,12,"""rent""",1500.0,15.0,"""88031548""","""flat""","""Madrid""",2,false,102.0,"""good""","""https://img3.idealista.com/blur/WEB_LISTING/0/id.pro.es.image.master/4a/66/9c/736882587.jpg""","""PisoenCalledelPoetaJoanMaragall""",,"""https://www.idealista.com/inmueble/88031548/""",,,,,,,,,,,,,,
192,"""barrioArapiles""",1,"""es""","""2041""","""Chamberi""",false,"""965""","""5""",false,false,true,false,false,,40.4350526,-3.7040686,"""Madrid""","""Arapiles""",false,12,"""rent""",1000.0,17.0,"""88031470""","""flat""","""Madrid""",2,false,60.0,"""good""","""https://img3.idealista.com/blur/WEB_LISTING/0/id.pro.es.image.master/1d/ba/75/736881011.jpg""","""Piso""",,"""https://www.idealista.com/inmueble/88031470/""",,,,,,,,,,,,,,
193,"""CalleFerrerdelRio""",2,"""es""","""3171""","""Salamanca""",true,,"""3""",false,false,true,false,false,false,40.4333585,-3.6728358,"""Madrid""","""Guindalera""",false,29,"""rent""",2000.0,14.0,"""88031438""","""penthouse""","""Madrid""",3,false,140.0,"""good""","""https://img3.idealista.com/blur/WEB_LISTING/0/id.pro.es.image.master/7e/af/8a/736880759.jpg""","""AticoenCalleFerrerdelRio""","""flat""","""https://www.idealista.com/inmueble/88031438/""",,,,,,120.0,,,,,,,,
194,"""CalledeLuisMitjans""",3,"""es""","""3046""","""Retiro""",true,,"""5""",false,false,true,false,false,true,40.4035915,-3.6716452,"""Madrid""","""Adelfas""",false,21,"""rent""",1550.0,9.0,"""88031403""","""flat""","""Madrid""",4,false,170.0,"""good""","""https://img3.idealista.com/blur/WEB_LISTING/0/id.pro.es.image.master/7a/6b/be/736880069.jpg""","""PisoenCalledeLuisMitjans""",,"""https://www.idealista.com/inmueble/88031403/""",,,,,,,,,,,,,,
195,"""AvenidadeBurgos",2,"""es""","""7272""","""Chamartin""",true,,"""16""",false,false,true,false,false,true,40.4785053,-3.6751193,"""Madrid""","""Castilla""",false,19,"""rent""",1250.0,10.0,"""88031435""","""flat""","""Madrid""",2,true,126.0,"""good""","""https://img3.idealista.com/blur/WEB_LISTING/0/id.pro.es.image.master/db/ab/32/736880282.jpg""","""PisoenAvenidadeBurgos",,"""https://www.idealista.com/inmueble/88031435/""",,,,,,,,,,,,,,
196,"""CalleAlgete""",1,"""es""","""3269""","""Arganzuela""",true,"""Algete1000""","""2""",false,false,true,false,false,false,40.3883724,-3.6929019,"""Madrid""","""Legazpi""",false,19,"""rent""",1000.0,18.0,"""88031425""","""flat""","""Madrid""",1,false,55.0,"""good""","""https://img3.idealista.com/blur/WEB_LISTING/0/id.pro.es.image.master/7d/d5/03/736879988.jpg""","""PisoenCalleAlgete""",,"""https://www.idealista.com/inmueble/88031425/""",,,,,,50.0,,,,,,,,
197,"""CalleCostaRica""",2,"""es""","""39989""",,true,,"""1""",false,false,false,false,false,true,40.7450242,-3.5099521,"""TalamancadeJarama""",,false,18,"""rent""",650.0,7.0,"""88031411""","""duplex""","""Madrid""",3,false,90.0,"""good""","""https://img3.idealista.com/blur/WEB_LISTING/0/id.pro.es.image.master/32/9d/b1/725299381.jpg""","""D\u00faplexenCalleCostaRica""","""flat""","""https://www.idealista.com/inmueble/88031411/""",,,,,,,,,,,,,,
198,"""AvenidadelosMadronos""",5,"""es""","""7019""","""Hortaleza""",false,,,false,false,,false,true,true,40.4573997,-3.6398505,"""Madrid""","""CondeOrgaz-Piovera""",false,18,"""rent""",5600.0,12.0,"""88031396""","""chalet""","""Madrid""",5,false,450.0,"""good""","""https://img3.idealista.com/blur/WEB_LISTING/0/id.pro.es.image.master/20/a7/cc/736879838.jpg""","""ChaletpareadoenAvenidadelosMadronos""","""chalet""","""https://www.idealista.com/inmueble/88031396/""",,,,,,,,,,,,,,
199,"""CalledeBravoMurillo""",1,"""es""","""2152""","""Chamberi""",false,"""CM859-070417""","""1""",false,false,true,false,false,,40.4359686,-3.7056435,"""Madrid""","""Arapiles""",false,11,"""rent""",1100.0,22.0,"""88031381""","""flat""","""Madrid""",1,false,50.0,"""good""","""https://img3.idealista.com/blur/WEB_LISTING/0/id.pro.es.image.master/c1/a5/8a/736878993.jpg""","""PisoenCalledeBravoMurillo""",,"""https://www.idealista.com/inmueble/88031381/""",,,,,,,,,,,,,,
200,"""barrioCiudadJardin""",1,"""es""","""3663""","""Chamartin""",true,"""VS-A-1586""","""2""",false,false,true,false,false,,40.443843,-3.6787155,"""Madrid""","""CiudadJardin""",false,20,"""rent""",1600.0,18.0,"""88031388""","""flat""","""Madrid""",2,false,90.0,"""good""","""https://img3.idealista.com/blur/WEB_LISTING/0/id.pro.es.image.master/1b/9d/4e/736879839.jpg""","""Piso""",,"""https://www.idealista.com/inmueble/88031388/""",,,,,,,,,,,,,,
201,"""barrioGuindalera""",1,"""es""","""3609""","""Salamanca""",true,,"""1""",false,false,true,false,false,,40.4326383,-3.6660978,"""Madrid""","""Guindalera""",false,13,"""rent""",750.0,16.0,"""88031389""","""flat""","""Madrid""",1,false,48.0,"""good""","""https://img3.idealista.com/blur/WEB_LISTING/0/id.pro.es.image.master/51/e2/f2/736878918.jpg""","""Piso""",,"""https://www.idealista.com/inmueble/88031389/""",,,,,,,,,,,,,,
202,"""CalledelaSantisimaTrinidads/n""",2,"""es""","""2250""","""Chamberi""",true,,"""1""",false,false,true,false,false,true,40.4368682,-3.7010671,"""Madrid""","""Trafalgar""",false,22,"""rent""",2500.0,17.0,"""88031378""","""flat""","""Madrid""",4,true,150.0,"""good""","""https://img3.idealista.com/blur/WEB_LISTING/0/id.pro.es.image.master/c0/d1/83/736878826.jpg""","""PisoenCalledelaSantisimaTrinidads/n""",,"""https://www.idealista.com/inmueble/88031378/""",,,,,,,,,,,,,,
203,"""AvenidapioXII""",1,"""es""","""6692""","""Chamartin""",true,"""MAR080""","""12""",false,false,true,false,false,,40.4725699,-3.6738365,"""Madrid""","""Castilla""",false,7,"""rent""",895.0,14.0,"""88031375""","""flat""","""Madrid""",1,false,65.0,"""good""","""https://img3.idealista.com/blur/WEB_LISTING/0/id.pro.es.image.master/cf/dc/81/736878708.jpg""","""PisoenAvenidapioXII""",,"""https://www.idealista.com/inmueble/88031375/""",,,,,,,,,,,,,,
204,,1,"""es""","""2423""","""Retiro""",true,,"""2""",false,false,true,false,false,true,40.408108,-3.6769457,"""Madrid""","""NinoJes\u00fas""",false,27,"""rent""",1350.0,18.0,"""88032749""","""flat""","""Madrid""",2,true,75.0,"""good""","""https://img3.idealista.com/blur/WEB_LISTING/0/id.pro.es.image.master/cf/5b/0a/736909883.jpg""","""PisoenReyesMagos",,"""https://www.idealista.com/inmueble/88032749/""","""ReyesMagos",,,,,,,,,,,,,
205,"""CallePintorpicasso""",1,"""es""","""29659""","""SanIsidro-LosAlmendros""",true,"""PintorPicasso""","""1""",false,false,false,false,false,,40.4843907,-3.3641845,"""AlcaladeHenares""",,false,12,"""rent""",620.0,11.0,"""25251971""","""flat""","""Madrid""",1,false,56.0,"""good""","""https://img3.idealista.com/blur/WEB_LISTING/0/id.pro.es.image.master/3d/7a/4f/28217930.jpg""","""PisoenCallePintorpicasso""",,"""https://www.idealista.com/inmueble/25251971/""",,,,,,,,,,,,,,
206,"""barrioMalasana-Universidad""",1,"""es""","""1080""","""Centro""",true,"""03427""","""3""",false,false,true,true,true,,40.4258084,-3.7076872,"""Madrid""","""Malasana-Universidad""",false,25,"""rent""",1600.0,40.0,"""88030175""","""flat""","""Madrid""",1,false,40.0,"""good""","""https://img3.idealista.com/blur/WEB_LISTING/0/id.pro.es.image.master/e0/45/86/736848767.jpg""","""Piso""",,"""https://www.idealista.com/inmueble/88030175/""",,,,,,,,,,,,,,
207,"""PlazaTirsodeMolina""",1,"""es""","""593""","""Centro""",true,"""A-JOHANA-128""","""3""",false,false,true,false,false,,40.4113752,-3.7028011,"""Madrid""","""Lavapies-Embajadores""",false,6,"""rent""",990.0,22.0,"""88032719""","""flat""","""Madrid""",1,false,45.0,"""good""","""https://img3.idealista.com/blur/WEB_LISTING/0/id.pro.es.image.master/ee/5c/9c/736909064.jpg""","""PisoenPlazaTirsodeMolina""",,"""https://www.idealista.com/inmueble/88032719/""",,,,,,,,,,,,,,
208,"""CalledelDoctorCortezo""",1,"""es""","""215""","""Centro""",false,"""0A-JOHANA-129""","""2""",false,false,true,false,false,,40.4147651,-3.7031915,"""Madrid""","""Lavapies-Embajadores""",false,5,"""rent""",950.0,21.0,"""88032712""","""flat""","""Madrid""",1,false,45.0,"""good""","""https://img3.idealista.com/blur/WEB_LISTING/0/id.pro.es.image.master/12/d8/a5/736910158.jpg""","""PisoenCalledelDoctorCortezo""",,"""https://www.idealista.com/inmueble/88032712/""",,,,,,,,,,,,,,
209,"""barrioCastellana""",1,"""es""","""2734""","""Salamanca""",false,"""JS-A-3476""","""8""",false,false,true,false,false,,40.4361343,-3.6834487,"""Madrid""","""Castellana""",false,16,"""rent""",1250.0,27.0,"""88032715""","""flat""","""Madrid""",2,false,46.0,"""good""","""https://img3.idealista.com/blur/WEB_LISTING/0/id.pro.es.image.master/91/fa/fb/736908815.jpg""","""Piso""",,"""https://www.idealista.com/inmueble/88032715/""",,,,,,,,,,,,,,
210,"""barrioRecoletos""",2,"""es""","""2054""","""Salamanca""",true,"""03161""","""5""",false,false,true,true,true,,40.4269154,-3.6830184,"""Madrid""","""Recoletos""",false,17,"""rent""",1800.0,23.0,"""88032575""","""flat""","""Madrid""",2,false,80.0,"""good""","""https://img3.idealista.com/blur/WEB_LISTING/0/id.pro.es.image.master/a3/a3/34/736907511.jpg""","""Piso""",,"""https://www.idealista.com/inmueble/88032575/""",,,,,,,,,,,,,,
211,"""barrioCondeOrgaz-Piovera""",5,"""es""","""7512""","""Hortaleza""",false,"""MA20111""",,false,false,,true,true,true,40.4565208,-3.6315368,"""Madrid""","""CondeOrgaz-Piovera""",false,32,"""rent""",5600.0,14.0,"""36752009""","""chalet""","""Madrid""",5,false,400.0,"""good""","""https://img3.idealista.com/blur/WEB_LISTING/0/id.pro.es.image.master/c0/cf/2b/659277603.jpg""","""Chaletadosado""","""chalet""","""https://www.idealista.com/inmueble/36752009/""",,,,,,,,,,,,,,
212,"""Cuevas""",1,"""es""","""4957""","""Tetuan""",true,,"""1""",false,false,true,false,false,,40.4612161,-3.6999666,"""Madrid""","""Valdeacederas""",false,23,"""rent""",750.0,18.0,"""88032677""","""flat""","""Madrid""",1,false,42.0,"""good""","""https://img3.idealista.com/blur/WEB_LISTING/0/id.pro.es.image.master/84/83/48/736908582.jpg""","""PisoenCuevas""",,"""https://www.idealista.com/inmueble/88032677/""",,,,,,,,,,,,,,
213,"""CalledeMatamorosa",2,"""es""","""6357""","""CiudadLineal""",true,,"""2""",false,false,true,true,false,true,40.4205492,-3.6283168,"""Madrid""","""PuebloNuevo""",false,9,"""rent""",1075.0,11.0,"""88032642""","""flat""","""Madrid""",2,true,95.0,"""good""","""https://img3.idealista.com/blur/WEB_LISTING/0/id.pro.es.image.master/ff/92/7d/736907380.jpg""","""PisoenCalledeMatamorosa",,"""https://www.idealista.com/inmueble/88032642/""",,,,,,,,,,,,,,
214,"""barrioMalasana-Universidad""",1,"""es""","""759""","""Centro""",true,"""03426""","""3""",false,false,true,true,true,,40.4229084,-3.7069872,"""Madrid""","""Malasana-Universidad""",false,22,"""rent""",2100.0,53.0,"""88030074""","""flat""","""Madrid""",1,false,40.0,"""good""","""https://img3.idealista.com/blur/WEB_LISTING/0/id.pro.es.image.master/88/1e/a0/736846274.jpg""","""Piso""",,"""https://www.idealista.com/inmueble/88030074/""",,,,,,,,,,,,,,
215,"""cantabrico""",3,"""es""","""38854""",,false,"""ALQ816""",,false,false,,false,false,true,40.6647207,-4.0271738,"""Alpedrete""",,false,21,"""rent""",1300.0,7.0,"""88032621""","""chalet""","""Madrid""",3,false,200.0,"""good""","""https://img3.idealista.com/blur/WEB_LISTING/0/id.pro.es.image.master/b7/fd/40/736906989.jpg""","""Chaletpareadoencantabrico""","""chalet""","""https://www.idealista.com/inmueble/88032621/""",,,,,,,,,,,,,,
216,"""CalledeGandia""",1,"""es""","""3427""","""Retiro""",true,"""2438""","""5""",false,false,true,false,false,,40.397774,-3.6712991,"""Madrid""","""Adelfas""",false,36,"""rent""",1000.0,16.0,"""88032634""","""flat""","""Madrid""",3,false,63.0,"""good""","""https://img3.idealista.com/blur/WEB_LISTING/0/id.pro.es.image.master/81/0d/c0/736906930.jpg""","""PisoenCalledeGandia""",,"""https://www.idealista.com/inmueble/88032634/""",,,,,,,,,,,,,,
217,"""CalledelaFelicidad""",2,"""es""","""15510""","""Norte""",true,"""FELICIDAD","""bj""",false,false,true,false,false,true,40.5522626,-3.6600176,"""Alcobendas""",,false,19,"""rent""",1500.0,14.0,"""88032598""","""flat""","""Madrid""",3,false,109.0,"""good""","""https://img3.idealista.com/blur/WEB_LISTING/0/id.pro.es.image.master/39/e7/01/736906893.jpg""","""PisoenCalledelaFelicidad""",,"""https://www.idealista.com/inmueble/88032598/""",,,,,,,,,,,,,,
218,"""PaseodelaFlorida""",1,"""es""","""1612""","""Moncloa""",true,,"""1""",false,false,true,false,false,,40.419661,-3.7218962,"""Madrid""","""CasadeCampo""",false,31,"""rent""",1000.0,25.0,"""88032612""","""flat""","""Madrid""",2,false,40.0,"""good""","""https://img3.idealista.com/blur/WEB_LISTING/0/id.pro.es.image.master/4c/73/f8/736906700.jpg""","""PisoenPaseodelaFlorida""",,"""https://www.idealista.com/inmueble/88032612/""",,,,,,,,,,,,,,
219,"""CASTILLODECOCA""",1,"""es""","""6553""","""SanBlas""",true,,"""1""",false,false,false,false,false,,40.43061,-3.62802,"""Madrid""","""Simancas""",false,6,"""rent""",990.0,15.0,"""88032608""","""flat""","""Madrid""",3,false,65.0,"""good""","""https://img3.idealista.com/blur/WEB_LISTING/0/id.pro.es.image.master/46/c6/12/736906763.jpg""","""PisoenCASTILLODECOCA""",,"""https://www.idealista.com/inmueble/88032608/""",,,,,,,,,,,,,,
220,"""CalledelaPovedilla""",1,"""es""","""3027""","""Salamanca""",true,"""AJ-02404""","""4""",false,false,true,false,false,,40.4228103,-3.6683939,"""Madrid""","""Goya""",false,19,"""rent""",1100.0,16.0,"""36162209""","""flat""","""Madrid""",2,false,70.0,"""good""","""https://img3.idealista.com/blur/WEB_LISTING/0/id.pro.es.image.master/dc/c7/62/192844912.jpg""","""PisoenCalledelaPovedilla""",,"""https://www.idealista.com/inmueble/36162209/""",,,,,,,,,,,,,,
222,"""CalledeOrense""",1,"""es""","""4856""","""Tetuan""",true,,"""6""",false,false,true,false,false,,40.4597131,-3.693295,"""Madrid""","""Cuzco-Castillejos""",false,17,"""rent""",1250.0,17.0,"""88032560""","""flat""","""Madrid""",1,false,75.0,"""good""","""https://img3.idealista.com/blur/WEB_LISTING/0/id.pro.es.image.master/b7/22/8b/736905951.jpg""","""PisoenCalledeOrense""",,"""https://www.idealista.com/inmueble/88032560/""",,,,,,,,,,,,,,
223,"""lopezdehoyos""",1,"""es""","""4109""","""Chamartin""",true,"""DQ-LDHOYOS1200""","""6""",false,false,true,false,true,,40.4461963,-3.6739838,"""Madrid""","""Prosperidad""",false,10,"""rent""",1200.0,16.0,"""88032541""","""flat""","""Madrid""",2,false,77.0,"""good""","""https://img3.idealista.com/blur/WEB_LISTING/0/id.pro.es.image.master/d8/44/b4/736905693.jpg""","""Pisoenlopezdehoyos""",,"""https://www.idealista.com/inmueble/88032541/""",,,,,,,,,,,,,,
224,"""barrioMalasana-Universidad""",1,"""es""","""756""","""Centro""",true,"""03425""","""2""",false,false,true,false,true,,40.4226084,-3.7076872,"""Madrid""","""Malasana-Universidad""",false,24,"""rent""",2100.0,47.0,"""88029236""","""flat""","""Madrid""",1,false,45.0,"""good""","""https://img3.idealista.com/blur/WEB_LISTING/0/id.pro.es.image.master/ed/76/fb/736844561.jpg""","""Piso""",,"""https://www.idealista.com/inmueble/88029236/""",,,,,,,,,,,,,,
225,"""CalledeAtocha""",2,"""es""","""526""","""Centro""",false,"""3490-00911""","""2""",false,false,false,false,false,,40.4125649,-3.7002118,"""Madrid""","""Huertas-Cortes""",false,9,"""rent""",1500.0,15.0,"""88032500""","""flat""","""Madrid""",2,false,100.0,"""good""","""https://img3.idealista.com/blur/WEB_LISTING/0/id.pro.es.image.master/cc/23/40/736904966.jpg""","""PisoenCalledeAtocha""",,"""https://www.idealista.com/inmueble/88032500/""",,,,,,,,,,,,,,
226,"""barrioGoya""",2,"""es""","""2174""","""Salamanca""",false,"""03424""","""4""",false,false,true,true,true,,40.4257299,-3.6804642,"""Madrid""","""Goya""",false,14,"""rent""",1400.0,19.0,"""88029105""","""flat""","""Madrid""",1,false,75.0,"""good""","""https://img3.idealista.com/blur/WEB_LISTING/0/id.pro.es.image.master/3d/40/4e/736823914.jpg""","""Piso""",,"""https://www.idealista.com/inmueble/88029105/""",,,,,,,,,,,,,,
227,"""paz""",2,"""es""","""166""","""Centro""",true,"""VB-150""","""1""",false,false,true,false,true,,40.4174651,-3.7049353,"""Madrid""","""Sol""",false,36,"""rent""",3200.0,13.0,"""88032441""","""flat""","""Madrid""",3,false,240.0,"""good""","""https://img3.idealista.com/blur/WEB_LISTING/0/id.pro.es.image.master/81/10/fe/736904000.jpg""","""Pisoenpaz""",,"""https://www.idealista.com/inmueble/88032441/""",,,,,,,,,,,,,,
228,"""CalleAgustindeBetancourt""",3,"""es""","""3242""","""Chamberi""",true,"""PA-CABMM""","""1""",false,false,true,false,false,,40.4451354,-3.6947729,"""Madrid""","""NuevosMinisterios-RiosRosas""",false,22,"""rent""",3200.0,14.0,"""88032438""","""flat""","""Madrid""",4,false,225.0,"""good""","""https://img3.idealista.com/blur/WEB_LISTING/0/id.pro.es.image.master/01/76/5d/736903371.jpg""","""PisoenCalleAgustindeBetancourt""",,"""https://www.idealista.com/inmueble/88032438/""",,,,,,,,,,,,,,
229,"""barrioTrafalgar""",1,"""es""","""2137""","""Chamberi""",true,"""03267""","""1""",false,false,true,true,true,,40.4356424,-3.6989272,"""Madrid""","""Trafalgar""",false,10,"""rent""",1400.0,25.0,"""88032327""","""flat""","""Madrid""",1,false,55.0,"""good""","""https://img3.idealista.com/blur/WEB_LISTING/0/id.pro.es.image.master/77/b8/fa/736902382.jpg""","""Piso""",,"""https://www.idealista.com/inmueble/88032327/""",,,,,,,,,,,,,,
230,"""barrioRecoletos""",1,"""es""","""1858""","""Salamanca""",true,"""03422""","""4""",false,false,true,true,true,,40.425055,-3.6842277,"""Madrid""","""Recoletos""",false,17,"""rent""",1850.0,18.0,"""88028858""","""flat""","""Madrid""",1,false,105.0,"""good""","""https://img3.idealista.com/blur/WEB_LISTING/0/id.pro.es.image.master/97/df/7c/736877363.jpg""","""Piso""",,"""https://www.idealista.com/inmueble/88028858/""",,,,,,,,,,,,,,
231,"""CalledelaSantisimaTrinidad""",2,"""es""","""2015""","""Chamberi""",true,,"""1""",false,false,true,false,false,true,40.4346912,-3.7003236,"""Madrid""","""Trafalgar""",false,32,"""rent""",2500.0,17.0,"""88032389""","""flat""","""Madrid""",4,false,150.0,"""good""","""https://img3.idealista.com/blur/WEB_LISTING/0/id.pro.es.image.master/b8/cc/56/736902939.jpg""","""PisoenCalledelaSantisimaTrinidad""",,"""https://www.idealista.com/inmueble/88032389/""",,,,,,,,,,,,,,
232,"""CalledeNarvaez",2,"""es""","""2399""","""Salamanca""",true,"""AH-370""","""3""",false,false,true,false,false,,40.4219594,-3.6757642,"""Madrid""","""Goya""",false,15,"""rent""",2500.0,14.0,"""88032400""","""flat""","""Madrid""",3,true,178.0,"""good""","""https://img3.idealista.com/blur/WEB_LISTING/0/id.pro.es.image.master/fb/d3/28/736902744.jpg""","""PisoenCalledeNarvaez",,"""https://www.idealista.com/inmueble/88032400/""",,,,,,,,,,,,,,
233,"""CalledeJulianRomea""",1,"""es""","""3036""","""Chamberi""",true,,"""2""",false,false,true,false,false,,40.4416708,-3.717761,"""Madrid""","""Vallehermoso""",false,10,"""rent""",1350.0,21.0,"""88032395""","""flat""","""Madrid""",1,false,65.0,"""good""","""https://img3.idealista.com/blur/WEB_LISTING/0/id.pro.es.image.master/ab/85/2e/736902402.jpg""","""PisoenCalledeJulianRomea""",,"""https://www.idealista.com/inmueble/88032395/""",,,,,,,,,,,,,,
234,"""barrioJeronimos""",1,"""es""","""1061""","""Retiro""",true,,"""5""",false,false,true,false,false,false,40.4151731,-3.6908691,"""Madrid""","""Jeronimos""",false,13,"""rent""",1000.0,16.0,"""88032370""","""flat""","""Madrid""",1,false,62.0,"""good""","""https://img3.idealista.com/blur/WEB_LISTING/0/id.pro.es.image.master/48/d1/c9/736902311.jpg""","""Piso""",,"""https://www.idealista.com/inmueble/88032370/""",,,,,,175.0,,,,,,,,
235,"""Valleaguado-LaCanada""",2,"""es""","""13862""","""Valleaguado-LaCanada""",true,"""1611/208""","""bj""",false,false,false,false,false,,40.4276587,-3.540118,"""Coslada""",,false,13,"""rent""",725.0,10.0,"""88032312""","""flat""","""Madrid""",2,false,76.0,"""good""","""https://img3.idealista.com/blur/WEB_LISTING/0/id.pro.es.image.master/95/a3/f5/736901903.jpg""","""Piso""",,"""https://www.idealista.com/inmueble/88032312/""",,,,,,,,,,,,,,
236,"""Suroeste""",2,"""es""","""19712""","""Suroeste""",true,"""397/1350""","""3""",false,false,true,false,false,true,40.4434311,-3.4730116,"""TorrejondeArdoz""",,false,21,"""rent""",900.0,6.0,"""88032365""","""flat""","""Madrid""",3,false,144.0,"""good""","""https://img3.idealista.com/blur/WEB_LISTING/0/id.pro.es.image.master/94/09/db/736901802.jpg""","""Piso""",,"""https://www.idealista.com/inmueble/88032365/""",,,,,,,,,,,,,,
237,"""CalleVirtudes""",2,"""es""","""2290""","""Chamberi""",true,,"""3""",false,false,true,false,false,,40.4370829,-3.6993578,"""Madrid""","""Almagro""",false,25,"""rent""",2100.0,17.0,"""88032332""","""flat""","""Madrid""",3,false,125.0,"""good""","""https://img3.idealista.com/blur/WEB_LISTING/0/id.pro.es.image.master/83/d2/58/736901608.jpg""","""PisoenCalleVirtudes""",,"""https://www.idealista.com/inmueble/88032332/""",,,,,,,,,,,,,,
238,"""Calledejoaquinmarialopez""",1,"""es""","""2752""","""Chamberi""",true,"""1354""","""5""",false,false,true,false,false,,40.4395115,-3.7158701,"""Madrid""","""Gaztambide""",false,17,"""rent""",900.0,18.0,"""34350001""","""flat""","""Madrid""",1,false,49.0,"""good""","""https://img3.idealista.com/blur/WEB_LISTING/0/id.pro.es.image.master/fd/a4/9a/163155084.jpg""","""PisoenCalledejoaquinmarialopez""",,"""https://www.idealista.com/inmueble/34350001/""",,,,,,,,,,,,,,
239,"""Calledoctoresquerdo",1,"""es""","""2940""","""Retiro""",true,"""Cla/barbara/87""","""2""",false,false,true,false,false,,40.4031319,-3.6734386,"""Madrid""","""Pacifico""",false,40,"""rent""",790.0,16.0,"""88032328""","""flat""","""Madrid""",1,true,50.0,"""good""","""https://img3.idealista.com/blur/WEB_LISTING/0/id.pro.es.image.master/18/0c/46/736901990.jpg""","""PisoenCalledoctoresquerdo",,"""https://www.idealista.com/inmueble/88032328/""",,,,,,,,,,,,,,
240,"""CalledelGeneralPardinas""",1,"""es""","""2569""","""Salamanca""",false,"""SAP-918""","""1""",false,false,true,false,false,,40.4284735,-3.6771296,"""Madrid""","""Goya""",false,21,"""rent""",1100.0,18.0,"""88032341""","""flat""","""Madrid""",2,false,60.0,"""good""","""https://img3.idealista.com/blur/WEB_LISTING/0/id.pro.es.image.master/5f/9f/59/736901205.jpg""","""PisoenCalledelGeneralPardinas""",,"""https://www.idealista.com/inmueble/88032341/""",,,,,,,,,,,,,,
241,"""barrioGoya""",2,"""es""","""2957""","""Salamanca""",true,"""SAP-3808""","""4""",false,false,true,false,false,,40.4285696,-3.6719847,"""Madrid""","""Goya""",false,20,"""rent""",1450.0,16.0,"""88032338""","""flat""","""Madrid""",2,false,90.0,"""good""","""https://img3.idealista.com/blur/WEB_LISTING/0/id.pro.es.image.master/8b/4a/17/736901168.jpg""","""Piso""",,"""https://www.idealista.com/inmueble/88032338/""",,,,,,,,,,,,,,
242,"""barrioLucero""",1,"""es""","""3621""","""Latina""",true,"""alq-lu""","""3""",false,false,false,false,false,,40.4053659,-3.7433469,"""Madrid""","""Lucero""",false,13,"""rent""",650.0,13.0,"""88032323""","""flat""","""Madrid""",1,false,50.0,"""good""","""https://img3.idealista.com/blur/WEB_LISTING/0/id.pro.es.image.master/8d/90/ac/736901173.jpg""","""Piso""",,"""https://www.idealista.com/inmueble/88032323/""",,,,,,,,,,,,,,
